{
"type": "FeatureCollection",
"features": [
{ "type": "Feature", "properties": { "hotel_id": 181547, "longitude": -73.83182, "latitude": 40.75967, "num_rooms": 173, "city": "Queens", "zip_code": "NY 11354", "hotel_type_id": 204, "city_id": 20089077, "address": "135-20 39th Avenue", "hotel_class": 3, "name": "Sheraton LaGuardia East Hotel", "district_id": 1538, "url": "https:\/\/www.booking.com\/hotel\/us\/sheraton-laguardia-east.html" }, "geometry": { "type": "Point", "coordinates": [ -73.83182, 40.75967 ] } },
{ "type": "Feature", "properties": { "hotel_id": 55876, "longitude": -73.98305, "latitude": 40.74278, "num_rooms": 131, "city": "New York", "zip_code": "NY 10016", "hotel_type_id": 204, "city_id": 20088325, "address": "124 East 28th Street", "hotel_class": 4, "name": "Park South, a Joie de Vivre Hotel", "district_id": 929, "url": "https:\/\/www.booking.com\/hotel\/us\/park-south.html" }, "geometry": { "type": "Point", "coordinates": [ -73.98305, 40.74278 ] } },
{ "type": "Feature", "properties": { "hotel_id": 42879, "longitude": -73.98553, "latitude": 40.74463, "num_rooms": 337, "city": "New York", "zip_code": "NY 10016", "hotel_type_id": 204, "city_id": 20088325, "address": "22 East 29th Street", "hotel_class": 4, "name": "The James New York - NoMad", "district_id": 929, "url": "https:\/\/www.booking.com\/hotel\/us\/the-james-new-york-nomad-ny.html" }, "geometry": { "type": "Point", "coordinates": [ -73.98553, 40.74463 ] } },
{ "type": "Feature", "properties": { "hotel_id": 5122464, "longitude": -73.9895, "latitude": 40.73152, "num_rooms": 286, "city": "New York", "zip_code": "10003", "hotel_type_id": 204, "city_id": 20088325, "address": "112 East 11th Street", "hotel_class": 4, "name": "Moxy NYC East Village", "district_id": 929, "url": "https:\/\/www.booking.com\/hotel\/us\/moxy-nyc-east-village.html" }, "geometry": { "type": "Point", "coordinates": [ -73.9895, 40.73152 ] } },
{ "type": "Feature", "properties": { "hotel_id": 183709, "longitude": -73.98667, "latitude": 40.74669, "num_rooms": 172, "city": "New York", "zip_code": "NY 10001", "hotel_type_id": 204, "city_id": 20088325, "address": "4 West 31st Street", "hotel_class": 3, "name": "Hotel Wolcott", "district_id": 929, "url": "https:\/\/www.booking.com\/hotel\/us\/wolcott.html" }, "geometry": { "type": "Point", "coordinates": [ -73.98667, 40.74669 ] } },
{ "type": "Feature", "properties": { "hotel_id": 56080, "longitude": -73.98537, "latitude": 40.76106, "num_rooms": 193, "city": "New York", "zip_code": "NY 10019", "hotel_type_id": 204, "city_id": 20088325, "address": "224 West 49th Street", "hotel_class": 4, "name": "The Time New York", "district_id": 929, "url": "https:\/\/www.booking.com\/hotel\/us\/the-time.html" }, "geometry": { "type": "Point", "coordinates": [ -73.98537, 40.76106 ] } },
{ "type": "Feature", "properties": { "hotel_id": 244081, "longitude": -74.0146, "latitude": 40.70948, "num_rooms": 513, "city": "New York", "zip_code": "NY 10006", "hotel_type_id": 204, "city_id": 20088325, "address": "85 West Street at Albany Street", "hotel_class": 4, "name": "New York Marriott Downtown", "district_id": 929, "url": "https:\/\/www.booking.com\/hotel\/us\/new-york-marriott-downtown.html" }, "geometry": { "type": "Point", "coordinates": [ -74.0146, 40.70948 ] } },
{ "type": "Feature", "properties": { "hotel_id": 56294, "longitude": -73.98069, "latitude": 40.76435, "num_rooms": 700, "city": "New York", "zip_code": "NY 10019", "hotel_type_id": 204, "city_id": 20088325, "address": "871 Seventh Avenue at 55th Street", "hotel_class": 3, "name": "Wellington Hotel", "district_id": 929, "url": "https:\/\/www.booking.com\/hotel\/us\/wellington-manhattan.html" }, "geometry": { "type": "Point", "coordinates": [ -73.98069, 40.76435 ] } },
{ "type": "Feature", "properties": { "hotel_id": 182478, "longitude": -73.99304, "latitude": 40.75619, "num_rooms": 188, "city": "New York", "zip_code": "NY 10018", "hotel_type_id": 204, "city_id": 20088325, "address": "339 West 39th Street", "hotel_class": 3, "name": "Candlewood Suites NYC -Times Square", "district_id": 929, "url": "https:\/\/www.booking.com\/hotel\/us\/candlewood-suites-new-york-city.html" }, "geometry": { "type": "Point", "coordinates": [ -73.99304, 40.75619 ] } },
{ "type": "Feature", "properties": { "hotel_id": 76684, "longitude": -73.98481, "latitude": 40.76048, "num_rooms": 795, "city": "New York", "zip_code": "NY 10019", "hotel_type_id": 204, "city_id": 20088325, "address": "1605 Broadway Avenue", "hotel_class": 4, "name": "Crowne Plaza Times Square", "district_id": 929, "url": "https:\/\/www.booking.com\/hotel\/us\/crowne-plaza-times-square.html" }, "geometry": { "type": "Point", "coordinates": [ -73.98481, 40.76048 ] } },
{ "type": "Feature", "properties": { "hotel_id": 466941, "longitude": -73.98577, "latitude": 40.75051, "num_rooms": 185, "city": "New York", "zip_code": "NY 10018", "hotel_type_id": 204, "city_id": 20088325, "address": "52 West 36th Street", "hotel_class": 3, "name": "Hyatt Place New York\/Midtown-South", "district_id": 929, "url": "https:\/\/www.booking.com\/hotel\/us\/hyatt-place-new-york.html" }, "geometry": { "type": "Point", "coordinates": [ -73.98577, 40.75051 ] } },
{ "type": "Feature", "properties": { "hotel_id": 3174621, "longitude": -73.99174, "latitude": 40.75612, "num_rooms": 287, "city": "New York", "zip_code": "NY 10018", "hotel_type_id": 204, "city_id": 20088325, "address": "310 West 40th Street", "hotel_class": 4, "name": "Aliz Hotel Times Square", "district_id": 929, "url": "https:\/\/www.booking.com\/hotel\/us\/the-aliz-new-york.html" }, "geometry": { "type": "Point", "coordinates": [ -73.99174, 40.75612 ] } },
{ "type": "Feature", "properties": { "hotel_id": 182542, "longitude": -73.97149, "latitude": 40.75621, "num_rooms": 194, "city": "New York", "zip_code": "NY 10022", "hotel_type_id": 204, "city_id": 20088325, "address": "145 East 50th Street", "hotel_class": 4, "name": "The Kimberly Hotel & Suites", "district_id": 929, "url": "https:\/\/www.booking.com\/hotel\/us\/the-kimberly.html" }, "geometry": { "type": "Point", "coordinates": [ -73.97149, 40.75621 ] } },
{ "type": "Feature", "properties": { "hotel_id": 27752, "longitude": -73.99881, "latitude": 40.73236, "num_rooms": 150, "city": "New York", "zip_code": "NY 10011", "hotel_type_id": 204, "city_id": 20088325, "address": "103 Waverly Place", "hotel_class": 4, "name": "Washington Square Hotel", "district_id": 929, "url": "https:\/\/www.booking.com\/hotel\/us\/washington-square.html" }, "geometry": { "type": "Point", "coordinates": [ -73.99881, 40.73236 ] } },
{ "type": "Feature", "properties": { "hotel_id": 291324, "longitude": -73.98141, "latitude": 40.76909, "num_rooms": 176, "city": "New York", "zip_code": "NY 10023", "hotel_type_id": 204, "city_id": 20088325, "address": "One Central Park West", "hotel_class": 5, "name": "Trump International New York", "district_id": 929, "url": "https:\/\/www.booking.com\/hotel\/us\/trump-international-new-york.html" }, "geometry": { "type": "Point", "coordinates": [ -73.98141, 40.76909 ] } },
{ "type": "Feature", "properties": { "hotel_id": 41649, "longitude": -73.99143, "latitude": 40.7466, "num_rooms": 169, "city": "New York", "zip_code": "NY 10001", "hotel_type_id": 204, "city_id": 20088325, "address": "121 West 28th Street", "hotel_class": 3, "name": "Hilton Garden Inn New York\/Manhattan-Chelsea", "district_id": 929, "url": "https:\/\/www.booking.com\/hotel\/us\/hilton-garden-inn-new-york-chelsea.html" }, "geometry": { "type": "Point", "coordinates": [ -73.99143, 40.7466 ] } },
{ "type": "Feature", "properties": { "hotel_id": 337776, "longitude": -74.00892, "latitude": 40.71566, "num_rooms": 132, "city": "New York", "zip_code": "NY 10007", "hotel_type_id": 204, "city_id": 20088325, "address": "95 West Broadway", "hotel_class": 4, "name": "The Frederick Hotel", "district_id": 929, "url": "https:\/\/www.booking.com\/hotel\/us\/new-york-95-west-broadway.html" }, "geometry": { "type": "Point", "coordinates": [ -74.00892, 40.71566 ] } },
{ "type": "Feature", "properties": { "hotel_id": 262828, "longitude": -73.98114, "latitude": 40.75202, "num_rooms": 189, "city": "New York", "zip_code": "NY 10016", "hotel_type_id": 204, "city_id": 20088325, "address": "3 East 40th Street", "hotel_class": 4, "name": "Courtyard by Marriott New York Manhattan\/ Fifth Avenue", "district_id": 929, "url": "https:\/\/www.booking.com\/hotel\/us\/courtyard-new-york-manhattan-fifth-avenue.html" }, "geometry": { "type": "Point", "coordinates": [ -73.98114, 40.75202 ] } },
{ "type": "Feature", "properties": { "hotel_id": 308187, "longitude": -74.00362, "latitude": 40.74203, "num_rooms": 314, "city": "New York", "zip_code": "NY 10011", "hotel_type_id": 204, "city_id": 20088325, "address": "355 West 16th Street", "hotel_class": 4, "name": "Dream Downtown", "district_id": 929, "url": "https:\/\/www.booking.com\/hotel\/us\/dream-downtown.html" }, "geometry": { "type": "Point", "coordinates": [ -74.00362, 40.74203 ] } },
{ "type": "Feature", "properties": { "hotel_id": 254395, "longitude": -73.98444, "latitude": 40.75659, "num_rooms": 76, "city": "New York", "zip_code": "NY 10036", "hotel_type_id": 204, "city_id": 20088325, "address": "130 West 44th Street", "hotel_class": 5, "name": "The Chatwal, a Luxury Collection Hotel, New York City", "district_id": 929, "url": "https:\/\/www.booking.com\/hotel\/us\/the-chatwal.html" }, "geometry": { "type": "Point", "coordinates": [ -73.98444, 40.75659 ] } },
{ "type": "Feature", "properties": { "hotel_id": 1817831, "longitude": -73.99578, "latitude": 40.7017, "num_rooms": 194, "city": "Brooklyn", "zip_code": "NY 11201", "hotel_type_id": 204, "city_id": 20085207, "address": "60 Furman Street", "hotel_class": 5, "name": "1 Hotel Brooklyn Bridge", "district_id": 15416, "url": "https:\/\/www.booking.com\/hotel\/us\/1-brooklyn-bridge.html" }, "geometry": { "type": "Point", "coordinates": [ -73.99578, 40.7017 ] } },
{ "type": "Feature", "properties": { "hotel_id": 242447, "longitude": -73.96925, "latitude": 40.76055, "num_rooms": 91, "city": "New York", "zip_code": "NY 10022", "hotel_type_id": 204, "city_id": 20088325, "address": "687 Lexington Avenue", "hotel_class": 4, "name": "Fitzpatrick Manhattan", "district_id": 929, "url": "https:\/\/www.booking.com\/hotel\/us\/fitzpatrick-manhattan.html" }, "geometry": { "type": "Point", "coordinates": [ -73.96925, 40.76055 ] } },
{ "type": "Feature", "properties": { "hotel_id": 1323959, "longitude": -73.93584, "latitude": 40.75456, "num_rooms": 108, "city": "Queens", "zip_code": "NY 11101", "hotel_type_id": 204, "city_id": 20089077, "address": "38-28 27th Street", "hotel_class": 4, "name": "Boro Hotel", "district_id": 1534, "url": "https:\/\/www.booking.com\/hotel\/us\/the-boro-hotel-lic.html" }, "geometry": { "type": "Point", "coordinates": [ -73.93584, 40.75456 ] } },
{ "type": "Feature", "properties": { "hotel_id": 192082, "longitude": -74.00916, "latitude": 40.71521, "num_rooms": 100, "city": "New York", "zip_code": "NY 10007", "hotel_type_id": 204, "city_id": 20088325, "address": "85 West Broadway", "hotel_class": 4, "name": "AKA Tribeca", "district_id": 929, "url": "https:\/\/www.booking.com\/hotel\/us\/the-smyth-new-york.html" }, "geometry": { "type": "Point", "coordinates": [ -74.00916, 40.71521 ] } },
{ "type": "Feature", "properties": { "hotel_id": 28040, "longitude": -73.9786, "latitude": 40.78337, "num_rooms": 200, "city": "New York", "zip_code": "NY 10024", "hotel_type_id": 204, "city_id": 20088325, "address": "201 West 79th Street", "hotel_class": 4, "name": "Hotel Lucerne", "district_id": 929, "url": "https:\/\/www.booking.com\/hotel\/us\/the-lucerne.html" }, "geometry": { "type": "Point", "coordinates": [ -73.9786, 40.78337 ] } },
{ "type": "Feature", "properties": { "hotel_id": 41657, "longitude": -74.17717, "latitude": 40.6118, "num_rooms": 107, "city": "Staten Island", "zip_code": "NY 10314", "hotel_type_id": 204, "city_id": 900040555, "address": "1120 South Avenue", "hotel_class": 3, "name": "Hampton Inn & Suites Staten Island", "district_id": 0, "url": "https:\/\/www.booking.com\/hotel\/us\/hampton-inn-suites-staten-island.html" }, "geometry": { "type": "Point", "coordinates": [ -74.17717, 40.6118 ] } },
{ "type": "Feature", "properties": { "hotel_id": 1670478, "longitude": -74.0127, "latitude": 40.7093, "num_rooms": 317, "city": "New York", "zip_code": "NY 10006", "hotel_type_id": 204, "city_id": 20088325, "address": "133 Greenwich Street", "hotel_class": 3, "name": "Courtyard by Marriott New York Downtown Manhattan\/World Trade Center Area", "district_id": 929, "url": "https:\/\/www.booking.com\/hotel\/us\/courtyard-by-marriott-new-york-downtown-manhattan-world-trade-center-area.html" }, "geometry": { "type": "Point", "coordinates": [ -74.0127, 40.7093 ] } },
{ "type": "Feature", "properties": { "hotel_id": 2152283, "longitude": -73.7908, "latitude": 40.74041, "num_rooms": 123, "city": "Queens", "zip_code": "11365", "hotel_type_id": 204, "city_id": 20089077, "address": "183-15 Horace Harding Expressway", "hotel_class": 3, "name": "Courtyard by Marriott New York Queens\/Fresh Meadows", "district_id": 0, "url": "https:\/\/www.booking.com\/hotel\/us\/courtyard-by-marriott-new-york-queens-fresh-meadows.html" }, "geometry": { "type": "Point", "coordinates": [ -73.7908, 40.74041 ] } },
{ "type": "Feature", "properties": { "hotel_id": 56243, "longitude": -73.98258, "latitude": 40.76157, "num_rooms": 179, "city": "New York", "zip_code": "NY 10019", "hotel_type_id": 204, "city_id": 20088325, "address": "152 West 51st Street", "hotel_class": 4, "name": "Michelangelo Hotel", "district_id": 929, "url": "https:\/\/www.booking.com\/hotel\/us\/the-michelangelo.html" }, "geometry": { "type": "Point", "coordinates": [ -73.98258, 40.76157 ] } },
{ "type": "Feature", "properties": { "hotel_id": 247713, "longitude": -73.98372, "latitude": 40.75789, "num_rooms": 200, "city": "New York", "zip_code": "NY 10036", "hotel_type_id": 204, "city_id": 20088325, "address": "130 West 46th Street", "hotel_class": 5, "name": "The Kimpton Muse Hotel", "district_id": 929, "url": "https:\/\/www.booking.com\/hotel\/us\/muse-and-kimpton.html" }, "geometry": { "type": "Point", "coordinates": [ -73.98372, 40.75789 ] } },
{ "type": "Feature", "properties": { "hotel_id": 1803065, "longitude": -73.98499, "latitude": 40.74623, "num_rooms": 249, "city": "New York", "zip_code": "NY 10016", "hotel_type_id": 204, "city_id": 20088325, "address": "11 East 31st Street", "hotel_class": 4, "name": "Arlo NoMad", "district_id": 929, "url": "https:\/\/www.booking.com\/hotel\/us\/arlo-nomad.html" }, "geometry": { "type": "Point", "coordinates": [ -73.98499, 40.74623 ] } },
{ "type": "Feature", "properties": { "hotel_id": 247908, "longitude": -73.98394, "latitude": 40.74387, "num_rooms": 249, "city": "New York", "zip_code": "NY 10016", "hotel_type_id": 204, "city_id": 20088325, "address": "420 Park Avenue South", "hotel_class": 4, "name": "Royalton Park Avenue", "district_id": 929, "url": "https:\/\/www.booking.com\/hotel\/us\/royalton-park-avenue-nyc.html" }, "geometry": { "type": "Point", "coordinates": [ -73.98394, 40.74387 ] } },
{ "type": "Feature", "properties": { "hotel_id": 617927, "longitude": -73.99306, "latitude": 40.75441, "num_rooms": 293, "city": "New York", "zip_code": "NY 10018", "hotel_type_id": 204, "city_id": 20088325, "address": "312 West 37th Street", "hotel_class": 3, "name": "Homewood Suites Midtown Manhattan Times Square South", "district_id": 929, "url": "https:\/\/www.booking.com\/hotel\/us\/homewood-suites-midtown-manhattan-times-square-south.html" }, "geometry": { "type": "Point", "coordinates": [ -73.99306, 40.75441 ] } },
{ "type": "Feature", "properties": { "hotel_id": 59182, "longitude": -73.97837, "latitude": 40.76641, "num_rooms": 528, "city": "New York", "zip_code": "NY 10019", "hotel_type_id": 204, "city_id": 20088325, "address": "160 Central Park South", "hotel_class": 5, "name": "JW Marriott Essex House New York", "district_id": 929, "url": "https:\/\/www.booking.com\/hotel\/us\/j-e-house-new-york-new-york.html" }, "geometry": { "type": "Point", "coordinates": [ -73.97837, 40.76641 ] } },
{ "type": "Feature", "properties": { "hotel_id": 57487, "longitude": -73.98194, "latitude": 40.7557, "num_rooms": 398, "city": "New York", "zip_code": "NY 10036", "hotel_type_id": 204, "city_id": 20088325, "address": "45 West 44th Street", "hotel_class": 4, "name": "Sofitel New York", "district_id": 929, "url": "https:\/\/www.booking.com\/hotel\/us\/new-york.html" }, "geometry": { "type": "Point", "coordinates": [ -73.98194, 40.7557 ] } },
{ "type": "Feature", "properties": { "hotel_id": 187807, "longitude": -73.97798, "latitude": 40.76451, "num_rooms": 166, "city": "New York", "zip_code": "NY 10019", "hotel_type_id": 204, "city_id": 20088325, "address": "102 West 57th Street", "hotel_class": 4, "name": "West 57th Street by Hilton Club", "district_id": 929, "url": "https:\/\/www.booking.com\/hotel\/us\/west-57th-street-by-hilton-club.html" }, "geometry": { "type": "Point", "coordinates": [ -73.97798, 40.76451 ] } },
{ "type": "Feature", "properties": { "hotel_id": 1223168, "longitude": -73.98235, "latitude": 40.6875, "num_rooms": 245, "city": "Brooklyn", "zip_code": "NY 11217", "hotel_type_id": 204, "city_id": 20085207, "address": "300 Schermerhorn Street", "hotel_class": 3, "name": "Holiday Inn Brooklyn Downtown", "district_id": 7455, "url": "https:\/\/www.booking.com\/hotel\/us\/holiday-inn-brooklyn-nevins-station.html" }, "geometry": { "type": "Point", "coordinates": [ -73.98235, 40.6875 ] } },
{ "type": "Feature", "properties": { "hotel_id": 55846, "longitude": -73.97133, "latitude": 40.75264, "num_rooms": 95, "city": "New York", "zip_code": "NY 10017", "hotel_type_id": 219, "city_id": 20088325, "address": "234 East 46th Street", "hotel_class": 4, "name": "AKA United Nations", "district_id": 929, "url": "https:\/\/www.booking.com\/hotel\/us\/korman-communities-manhattan.html" }, "geometry": { "type": "Point", "coordinates": [ -73.97133, 40.75264 ] } },
{ "type": "Feature", "properties": { "hotel_id": 182259, "longitude": -73.86694, "latitude": 40.76735, "num_rooms": 358, "city": "Queens", "zip_code": "NY 11369", "hotel_type_id": 204, "city_id": 20089077, "address": "104-04 Ditmars Boulevard", "hotel_class": 3, "name": "LaGuardia Plaza Hotel", "district_id": 3685, "url": "https:\/\/www.booking.com\/hotel\/us\/laguardia-plaza-hotel.html" }, "geometry": { "type": "Point", "coordinates": [ -73.86694, 40.76735 ] } },
{ "type": "Feature", "properties": { "hotel_id": 56028, "longitude": -73.99168, "latitude": 40.74871, "num_rooms": 618, "city": "New York", "zip_code": "NY 10001", "hotel_type_id": 204, "city_id": 20088325, "address": "371 Seventh Avenue", "hotel_class": 4, "name": "Stewart Hotel", "district_id": 929, "url": "https:\/\/www.booking.com\/hotel\/us\/stewart-hotel.html" }, "geometry": { "type": "Point", "coordinates": [ -73.99168, 40.74871 ] } },
{ "type": "Feature", "properties": { "hotel_id": 480235, "longitude": -73.79841, "latitude": 40.66762, "num_rooms": 385, "city": "Queens", "zip_code": "NY 11436", "hotel_type_id": 204, "city_id": 20089077, "address": "135-30 140th Street", "hotel_class": 3, "name": "Radisson JFK Airport", "district_id": 3683, "url": "https:\/\/www.booking.com\/hotel\/us\/the-plaza-at-jfk-airport.html" }, "geometry": { "type": "Point", "coordinates": [ -73.79841, 40.66762 ] } },
{ "type": "Feature", "properties": { "hotel_id": 2012829, "longitude": -73.99307, "latitude": 40.7568, "num_rooms": 612, "city": "New York", "zip_code": "NY 10018", "hotel_type_id": 204, "city_id": 20088325, "address": "350 West 40th Street   ", "hotel_class": 4, "name": "Doubletree By Hilton New York Times Square West", "district_id": 929, "url": "https:\/\/www.booking.com\/hotel\/us\/doubletree-by-hilton-new-york-times-square-west.html" }, "geometry": { "type": "Point", "coordinates": [ -73.99307, 40.7568 ] } },
{ "type": "Feature", "properties": { "hotel_id": 442501, "longitude": -73.99658, "latitude": 40.73628, "num_rooms": 113, "city": "New York", "zip_code": "NY 10011", "hotel_type_id": 204, "city_id": 20088325, "address": "52 West 13th Steet", "hotel_class": 4, "name": "Walker Hotel Greenwich Village", "district_id": 929, "url": "https:\/\/www.booking.com\/hotel\/us\/walker-hotel-greenwich-village.html" }, "geometry": { "type": "Point", "coordinates": [ -73.99658, 40.73628 ] } },
{ "type": "Feature", "properties": { "hotel_id": 587337, "longitude": -73.79942, "latitude": 40.66738, "num_rooms": 335, "city": "Queens", "zip_code": "NY 11436", "hotel_type_id": 204, "city_id": 20089077, "address": "138-10 135th Avenue", "hotel_class": 4, "name": "Crowne Plaza JFK Airport New York City", "district_id": 3683, "url": "https:\/\/www.booking.com\/hotel\/us\/crowne-plaza-jfk-airport.html" }, "geometry": { "type": "Point", "coordinates": [ -73.79942, 40.66738 ] } },
{ "type": "Feature", "properties": { "hotel_id": 431070, "longitude": -74.01368, "latitude": 40.70831, "num_rooms": 192, "city": "New York", "zip_code": "10006", "hotel_type_id": 204, "city_id": 20088325, "address": "100 Greenwich Street", "hotel_class": 3, "name": "Fairfield Inn & Suites by Marriott New York Downtown Manhattan\/World Trade Center Area", "district_id": 929, "url": "https:\/\/www.booking.com\/hotel\/us\/hotel-lower-east-side-new-york.html" }, "geometry": { "type": "Point", "coordinates": [ -74.01368, 40.70831 ] } },
{ "type": "Feature", "properties": { "hotel_id": 1148349, "longitude": -73.9916, "latitude": 40.74667, "num_rooms": 135, "city": "New York", "zip_code": "NY 10001", "hotel_type_id": 204, "city_id": 20088325, "address": "123 West 28th Street", "hotel_class": 4, "name": "Cambria Hotel New York - Chelsea", "district_id": 929, "url": "https:\/\/www.booking.com\/hotel\/us\/cambria-amp-suites-new-york-chelsea.html" }, "geometry": { "type": "Point", "coordinates": [ -73.9916, 40.74667 ] } },
{ "type": "Feature", "properties": { "hotel_id": 58958, "longitude": -73.97425, "latitude": 40.76443, "num_rooms": 282, "city": "New York", "zip_code": "NY 10019", "hotel_type_id": 204, "city_id": 20088325, "address": "Fifth Avenue at Central Park South", "hotel_class": 5, "name": "The Plaza", "district_id": 929, "url": "https:\/\/www.booking.com\/hotel\/us\/the-plaza.html" }, "geometry": { "type": "Point", "coordinates": [ -73.97425, 40.76443 ] } },
{ "type": "Feature", "properties": { "hotel_id": 59552, "longitude": -73.98787, "latitude": 40.689, "num_rooms": 93, "city": "Brooklyn", "zip_code": "NY 11201", "hotel_type_id": 204, "city_id": 20085207, "address": "85 Smith Street", "hotel_class": 4, "name": "NU Hotel", "district_id": 7455, "url": "https:\/\/www.booking.com\/hotel\/us\/n-brooklyn-new-york.html" }, "geometry": { "type": "Point", "coordinates": [ -73.98787, 40.689 ] } },
{ "type": "Feature", "properties": { "hotel_id": 1330071, "longitude": -73.98856, "latitude": 40.75575, "num_rooms": 300, "city": "New York", "zip_code": "NY 10036", "hotel_type_id": 204, "city_id": 20088325, "address": "220 West 41st Street", "hotel_class": 3, "name": "Hampton Inn Times Square Central", "district_id": 929, "url": "https:\/\/www.booking.com\/hotel\/us\/hampton-inn-times-square-central.html" }, "geometry": { "type": "Point", "coordinates": [ -73.98856, 40.75575 ] } },
{ "type": "Feature", "properties": { "hotel_id": 59038, "longitude": -74.00724, "latitude": 40.70793, "num_rooms": 126, "city": "New York", "zip_code": "NY 10038", "hotel_type_id": 204, "city_id": 20088325, "address": "15 Gold Street", "hotel_class": 4, "name": "Gild Hall - A Thompson Hotel", "district_id": 929, "url": "https:\/\/www.booking.com\/hotel\/us\/gild-hall-thompson.html" }, "geometry": { "type": "Point", "coordinates": [ -74.00724, 40.70793 ] } },
{ "type": "Feature", "properties": { "hotel_id": 2508842, "longitude": -73.98943, "latitude": 40.74631, "num_rooms": 108, "city": "New York", "zip_code": "NY 10001", "hotel_type_id": 204, "city_id": 20088325, "address": "44 West 29th Street", "hotel_class": 4, "name": "MADE Hotel", "district_id": 929, "url": "https:\/\/www.booking.com\/hotel\/us\/made.html" }, "geometry": { "type": "Point", "coordinates": [ -73.98943, 40.74631 ] } },
{ "type": "Feature", "properties": { "hotel_id": 56087, "longitude": -73.98124, "latitude": 40.78258, "num_rooms": 244, "city": "New York", "zip_code": "NY 10024", "hotel_type_id": 204, "city_id": 20088325, "address": "2175 Broadway ", "hotel_class": 4, "name": "Hotel Belleclaire Central Park", "district_id": 929, "url": "https:\/\/www.booking.com\/hotel\/us\/belleclaire.html" }, "geometry": { "type": "Point", "coordinates": [ -73.98124, 40.78258 ] } },
{ "type": "Feature", "properties": { "hotel_id": 270216, "longitude": -73.96666, "latitude": 40.79883, "num_rooms": 98, "city": "New York", "zip_code": "NY 10025", "hotel_type_id": 203, "city_id": 20088325, "address": "891 Amsterdam Avenue", "hotel_class": 3, "name": "HI NYC Hostel", "district_id": 929, "url": "https:\/\/www.booking.com\/hotel\/us\/hi-new-york-hostel-nyc.html" }, "geometry": { "type": "Point", "coordinates": [ -73.96666, 40.79883 ] } },
{ "type": "Feature", "properties": { "hotel_id": 599531, "longitude": -73.99134, "latitude": 40.74812, "num_rooms": 273, "city": "New York", "zip_code": "NY 10001", "hotel_type_id": 204, "city_id": 20088325, "address": "135 West 30th Street", "hotel_class": 4, "name": "Courtyard by Marriott New York Manhattan\/Chelsea", "district_id": 929, "url": "https:\/\/www.booking.com\/hotel\/us\/courtyard-by-marriott-chelsea.html" }, "geometry": { "type": "Point", "coordinates": [ -73.99134, 40.74812 ] } },
{ "type": "Feature", "properties": { "hotel_id": 4125131, "longitude": -73.99397, "latitude": 40.75401, "num_rooms": 314, "city": "New York", "zip_code": "10018", "hotel_type_id": 204, "city_id": 20088325, "address": "338 West 36th Street", "hotel_class": 3, "name": "Fairfield Inn & Suites by Marriott New York Manhattan\/Times Square South", "district_id": 929, "url": "https:\/\/www.booking.com\/hotel\/us\/fairfield-inn-suites-by-marriott-new-york-manhattan-times-square-36th-st.html" }, "geometry": { "type": "Point", "coordinates": [ -73.99397, 40.75401 ] } },
{ "type": "Feature", "properties": { "hotel_id": 1498530, "longitude": -73.99126, "latitude": 40.75163, "num_rooms": 348, "city": "New York", "zip_code": "NY 10001", "hotel_type_id": 204, "city_id": 20088325, "address": "218 West 35th Street", "hotel_class": 4, "name": "Renaissance New York Midtown Hotel", "district_id": 929, "url": "https:\/\/www.booking.com\/hotel\/us\/renaissance-new-york-midtown.html" }, "geometry": { "type": "Point", "coordinates": [ -73.99126, 40.75163 ] } },
{ "type": "Feature", "properties": { "hotel_id": 56941, "longitude": -73.99457, "latitude": 40.74842, "num_rooms": 228, "city": "New York", "zip_code": "NY 10001", "hotel_type_id": 204, "city_id": 20088325, "address": "232 West 29th Street", "hotel_class": 3, "name": "Holiday Inn Express New York City Chelsea", "district_id": 929, "url": "https:\/\/www.booking.com\/hotel\/us\/holiday-inn-express.html" }, "geometry": { "type": "Point", "coordinates": [ -73.99457, 40.74842 ] } },
{ "type": "Feature", "properties": { "hotel_id": 3961780, "longitude": -73.99391, "latitude": 40.75435, "num_rooms": 96, "city": "New York", "zip_code": "NY 10018", "hotel_type_id": 204, "city_id": 20088325, "address": "337 W. 36th Street", "hotel_class": 4, "name": "Staypineapple, an Artful Hotel New York", "district_id": 929, "url": "https:\/\/www.booking.com\/hotel\/us\/staypineapple-artful-hotel-new-york.html" }, "geometry": { "type": "Point", "coordinates": [ -73.99391, 40.75435 ] } },
{ "type": "Feature", "properties": { "hotel_id": 56042, "longitude": -73.9869, "latitude": 40.76336, "num_rooms": 160, "city": "New York", "zip_code": "NY 10019", "hotel_type_id": 204, "city_id": 20088325, "address": "318 West 51st Street", "hotel_class": 3, "name": "Washington Jefferson at Times Square", "district_id": 929, "url": "https:\/\/www.booking.com\/hotel\/us\/washington-jefferson.html" }, "geometry": { "type": "Point", "coordinates": [ -73.9869, 40.76336 ] } },
{ "type": "Feature", "properties": { "hotel_id": 1618352, "longitude": -73.98183, "latitude": 40.68782, "num_rooms": 202, "city": "Brooklyn", "zip_code": "NY 11217", "hotel_type_id": 204, "city_id": 20085207, "address": "46 Nevins Street", "hotel_class": 4, "name": "EVEN Hotel Brooklyn", "district_id": 4314, "url": "https:\/\/www.booking.com\/hotel\/us\/even-hotels-brooklyn.html" }, "geometry": { "type": "Point", "coordinates": [ -73.98183, 40.68782 ] } },
{ "type": "Feature", "properties": { "hotel_id": 492830, "longitude": -73.98459, "latitude": 40.75109, "num_rooms": 173, "city": "New York", "zip_code": "NY 10018", "hotel_type_id": 204, "city_id": 20088325, "address": "25 West 37th St ", "hotel_class": 3, "name": "SpringHill Suites by Marriott New York Midtown Manhattan\/Fifth Avenue", "district_id": 929, "url": "https:\/\/www.booking.com\/hotel\/us\/new-york-midtown-manhattan-fifth-avenue.html" }, "geometry": { "type": "Point", "coordinates": [ -73.98459, 40.75109 ] } },
{ "type": "Feature", "properties": { "hotel_id": 2178340, "longitude": -73.97568, "latitude": 40.76266, "num_rooms": 86, "city": "New York", "zip_code": "NY 10019", "hotel_type_id": 204, "city_id": 20088325, "address": "18 West 56th Street", "hotel_class": 5, "name": "The Whitby Hotel", "district_id": 929, "url": "https:\/\/www.booking.com\/hotel\/us\/the-whitby.html" }, "geometry": { "type": "Point", "coordinates": [ -73.97568, 40.76266 ] } },
{ "type": "Feature", "properties": { "hotel_id": 543128, "longitude": -73.99289, "latitude": 40.71319, "num_rooms": 95, "city": "New York", "zip_code": "NY 10002", "hotel_type_id": 204, "city_id": 20088325, "address": "95 Henry Street", "hotel_class": 3, "name": "Fairfield Inn & Suites New York Manhattan\/Downtown East", "district_id": 929, "url": "https:\/\/www.booking.com\/hotel\/us\/suites-new-york-manhattan-downtown.html" }, "geometry": { "type": "Point", "coordinates": [ -73.99289, 40.71319 ] } },
{ "type": "Feature", "properties": { "hotel_id": 617923, "longitude": -73.98313, "latitude": 40.76437, "num_rooms": 401, "city": "New York", "zip_code": "NY 10019", "hotel_type_id": 204, "city_id": 20088325, "address": "237 West 54th Street", "hotel_class": 4, "name": "Hilton Garden Inn Central Park South", "district_id": 929, "url": "https:\/\/www.booking.com\/hotel\/us\/hilton-garden-inn-central-park-south.html" }, "geometry": { "type": "Point", "coordinates": [ -73.98313, 40.76437 ] } },
{ "type": "Feature", "properties": { "hotel_id": 56034, "longitude": -73.97778, "latitude": 40.74843, "num_rooms": 325, "city": "New York", "zip_code": "NY 10016", "hotel_type_id": 204, "city_id": 20088325, "address": "303 Lexington Avenue", "hotel_class": 4, "name": "Shelburne Hotel & Suites by Affinia", "district_id": 929, "url": "https:\/\/www.booking.com\/hotel\/us\/shelburne-murray-hill.html" }, "geometry": { "type": "Point", "coordinates": [ -73.97778, 40.74843 ] } },
{ "type": "Feature", "properties": { "hotel_id": 430999, "longitude": -73.98623, "latitude": 40.71817, "num_rooms": 132, "city": "New York", "zip_code": "NY 10002", "hotel_type_id": 204, "city_id": 20088325, "address": "150 Delancey Street", "hotel_class": 4, "name": "Holiday Inn Lower East Side", "district_id": 929, "url": "https:\/\/www.booking.com\/hotel\/us\/holiday-inn-lower-east-side.html" }, "geometry": { "type": "Point", "coordinates": [ -73.98623, 40.71817 ] } },
{ "type": "Feature", "properties": { "hotel_id": 75588, "longitude": -73.98788, "latitude": 40.74822, "num_rooms": 521, "city": "New York", "zip_code": "NY 10001", "hotel_type_id": 204, "city_id": 20088325, "address": "49 West 32nd Street", "hotel_class": 4, "name": "Martinique New York on Broadway, Curio Collection by Hilton", "district_id": 929, "url": "https:\/\/www.booking.com\/hotel\/us\/radisson-martinique-on-broadway.html" }, "geometry": { "type": "Point", "coordinates": [ -73.98788, 40.74822 ] } },
{ "type": "Feature", "properties": { "hotel_id": 57546, "longitude": -73.96834, "latitude": 40.76651, "num_rooms": 142, "city": "New York", "zip_code": "NY 10065", "hotel_type_id": 204, "city_id": 20088325, "address": "37 East 64 Street", "hotel_class": 5, "name": "Hôtel Plaza Athénée", "district_id": 929, "url": "https:\/\/www.booking.com\/hotel\/us\/plaza-athenee.html" }, "geometry": { "type": "Point", "coordinates": [ -73.96834, 40.76651 ] } },
{ "type": "Feature", "properties": { "hotel_id": 187692, "longitude": -73.99296, "latitude": 40.75618, "num_rooms": 184, "city": "New York", "zip_code": "NY 10018", "hotel_type_id": 204, "city_id": 20088325, "address": "337 West 39th Street", "hotel_class": 3, "name": "Hampton Inn Manhattan - Times Square South", "district_id": 929, "url": "https:\/\/www.booking.com\/hotel\/us\/hampton-inn-manhattan-times-square-south.html" }, "geometry": { "type": "Point", "coordinates": [ -73.99296, 40.75618 ] } },
{ "type": "Feature", "properties": { "hotel_id": 1968984, "longitude": -73.9907, "latitude": 40.74629, "num_rooms": 150, "city": "New York", "zip_code": "NY 10001", "hotel_type_id": 204, "city_id": 20088325, "address": "815 Avenue of the Americas", "hotel_class": 3, "name": "Hyatt House New York\/Chelsea", "district_id": 929, "url": "https:\/\/www.booking.com\/hotel\/us\/hyatt-house-new-york-chelsea.html" }, "geometry": { "type": "Point", "coordinates": [ -73.9907, 40.74629 ] } },
{ "type": "Feature", "properties": { "hotel_id": 56423, "longitude": -73.99115, "latitude": 40.74997, "num_rooms": 1705, "city": "New York", "zip_code": "NY 10001", "hotel_type_id": 204, "city_id": 20088325, "address": "401 7th Avenue", "hotel_class": 3, "name": "Hotel Pennsylvania", "district_id": 929, "url": "https:\/\/www.booking.com\/hotel\/us\/pennsylvania-new-york.html" }, "geometry": { "type": "Point", "coordinates": [ -73.99115, 40.74997 ] } },
{ "type": "Feature", "properties": { "hotel_id": 55890, "longitude": -73.97903, "latitude": 40.76215, "num_rooms": 1929, "city": "New York", "zip_code": "NY10019", "hotel_type_id": 204, "city_id": 20088325, "address": "1335 Avenue of Americas", "hotel_class": 4, "name": "New York Hilton Midtown", "district_id": 929, "url": "https:\/\/www.booking.com\/hotel\/us\/hilton-new-york.html" }, "geometry": { "type": "Point", "coordinates": [ -73.97903, 40.76215 ] } },
{ "type": "Feature", "properties": { "hotel_id": 1150083, "longitude": -73.98759, "latitude": 40.7471, "num_rooms": 122, "city": "New York", "zip_code": "NY 10001", "hotel_type_id": 204, "city_id": 20088325, "address": "30-32 West 31st Street", "hotel_class": 4, "name": "Hyatt Herald Square New York", "district_id": 929, "url": "https:\/\/www.booking.com\/hotel\/us\/hyatt-herald-square.html" }, "geometry": { "type": "Point", "coordinates": [ -73.98759, 40.7471 ] } },
{ "type": "Feature", "properties": { "hotel_id": 235242, "longitude": -73.98447, "latitude": 40.69147, "num_rooms": 321, "city": "Brooklyn", "zip_code": "NY 11201", "hotel_type_id": 204, "city_id": 20085207, "address": "228 Duffield Street", "hotel_class": 4, "name": "Sheraton Brooklyn New York", "district_id": 4314, "url": "https:\/\/www.booking.com\/hotel\/us\/sheraton-brooklyn-new-york.html" }, "geometry": { "type": "Point", "coordinates": [ -73.98447, 40.69147 ] } },
{ "type": "Feature", "properties": { "hotel_id": 270248, "longitude": -74.00792, "latitude": 40.70531, "num_rooms": 253, "city": "New York", "zip_code": "NY 10005", "hotel_type_id": 204, "city_id": 20088325, "address": "75 Wall Street", "hotel_class": 4, "name": "Andaz Wall Street-a concept by Hyatt", "district_id": 929, "url": "https:\/\/www.booking.com\/hotel\/us\/andaz-wall-street.html" }, "geometry": { "type": "Point", "coordinates": [ -74.00792, 40.70531 ] } },
{ "type": "Feature", "properties": { "hotel_id": 584558, "longitude": -73.98413, "latitude": 40.75743, "num_rooms": 487, "city": "New York", "zip_code": "NY 10036", "hotel_type_id": 204, "city_id": 20088325, "address": "135 West 45th Street", "hotel_class": 4, "name": "Hyatt Centric Times Square New York", "district_id": 929, "url": "https:\/\/www.booking.com\/hotel\/us\/hyatt-times-square.html" }, "geometry": { "type": "Point", "coordinates": [ -73.98413, 40.75743 ] } },
{ "type": "Feature", "properties": { "hotel_id": 56510, "longitude": -73.97904, "latitude": 40.75176, "num_rooms": 107, "city": "New York", "zip_code": "NY 10017", "hotel_type_id": 204, "city_id": 20088325, "address": "52 East 41st Street", "hotel_class": 4, "name": "Dylan Hotel NYC", "district_id": 929, "url": "https:\/\/www.booking.com\/hotel\/us\/dylan-new-york.html" }, "geometry": { "type": "Point", "coordinates": [ -73.97904, 40.75176 ] } },
{ "type": "Feature", "properties": { "hotel_id": 181383, "longitude": -73.99229, "latitude": 40.75646, "num_rooms": 244, "city": "New York", "zip_code": "NY 10018", "hotel_type_id": 204, "city_id": 20088325, "address": "326 West 40th Street", "hotel_class": 4, "name": "Four Points by Sheraton Midtown - Times Square", "district_id": 929, "url": "https:\/\/www.booking.com\/hotel\/us\/four-points-by-sheraton-midtown-times-square.html" }, "geometry": { "type": "Point", "coordinates": [ -73.99229, 40.75646 ] } },
{ "type": "Feature", "properties": { "hotel_id": 186176, "longitude": -73.97532, "latitude": 40.76168, "num_rooms": 239, "city": "New York", "zip_code": "NY 10019", "hotel_type_id": 204, "city_id": 20088325, "address": "700 Fifth Avenue at 55th Street", "hotel_class": 5, "name": "The Peninsula New York", "district_id": 929, "url": "https:\/\/www.booking.com\/hotel\/us\/the-peninsula-new-york.html" }, "geometry": { "type": "Point", "coordinates": [ -73.97532, 40.76168 ] } },
{ "type": "Feature", "properties": { "hotel_id": 599534, "longitude": -74.00557, "latitude": 40.70628, "num_rooms": 176, "city": "New York", "zip_code": "NY 10038", "hotel_type_id": 204, "city_id": 20088325, "address": "161 Front Street", "hotel_class": 3, "name": "Fairfield Inn by Marriott New York Manhattan\/Financial District", "district_id": 929, "url": "https:\/\/www.booking.com\/hotel\/us\/fairfield-inn-by-marriott-new-york-manhattan-financial-district.html" }, "geometry": { "type": "Point", "coordinates": [ -74.00557, 40.70628 ] } },
{ "type": "Feature", "properties": { "hotel_id": 386957, "longitude": -73.84102, "latitude": 40.78113, "num_rooms": 114, "city": "Queens", "zip_code": "NY 11356", "hotel_type_id": 204, "city_id": 20089077, "address": "20-07 127th Street", "hotel_class": 4, "name": "Hotel de Point", "district_id": 1538, "url": "https:\/\/www.booking.com\/hotel\/us\/de-point.html" }, "geometry": { "type": "Point", "coordinates": [ -73.84102, 40.78113 ] } },
{ "type": "Feature", "properties": { "hotel_id": 558480, "longitude": -73.9747, "latitude": 40.75308, "num_rooms": 92, "city": "New York", "zip_code": "NY 10017", "hotel_type_id": 204, "city_id": 20088325, "address": "128 E 45th St", "hotel_class": 4, "name": "Hotel Boutique at Grand Central", "district_id": 929, "url": "https:\/\/www.booking.com\/hotel\/us\/boutique-at-grand-central.html" }, "geometry": { "type": "Point", "coordinates": [ -73.9747, 40.75308 ] } },
{ "type": "Feature", "properties": { "hotel_id": 182326, "longitude": -73.99319, "latitude": 40.75627, "num_rooms": 210, "city": "New York", "zip_code": "NY 10018", "hotel_type_id": 204, "city_id": 20088325, "address": "343 West 39th Street", "hotel_class": 3, "name": "Holiday Inn Express - Times Square", "district_id": 929, "url": "https:\/\/www.booking.com\/hotel\/us\/holiday-inn-express-new-york-city-times-square.html" }, "geometry": { "type": "Point", "coordinates": [ -73.99319, 40.75627 ] } },
{ "type": "Feature", "properties": { "hotel_id": 57009, "longitude": -73.97538, "latitude": 40.76501, "num_rooms": 631, "city": "New York", "zip_code": "NY 10019", "hotel_type_id": 204, "city_id": 20088325, "address": "36 Central Park South", "hotel_class": 5, "name": "Park Lane Hotel - A Central Park Hotel", "district_id": 929, "url": "https:\/\/www.booking.com\/hotel\/us\/helmsley-park-lane.html" }, "geometry": { "type": "Point", "coordinates": [ -73.97538, 40.76501 ] } },
{ "type": "Feature", "properties": { "hotel_id": 79801, "longitude": -73.99115, "latitude": 40.74316, "num_rooms": 124, "city": "New York", "zip_code": "NY 10010", "hotel_type_id": 204, "city_id": 20088325, "address": "37 West 24th Street", "hotel_class": 4, "name": "Hotel Henri New York, A Wyndham Hotel", "district_id": 929, "url": "https:\/\/www.booking.com\/hotel\/us\/wyndham-garden-chelsea.html" }, "geometry": { "type": "Point", "coordinates": [ -73.99115, 40.74316 ] } },
{ "type": "Feature", "properties": { "hotel_id": 56435, "longitude": -73.94753, "latitude": 40.78289, "num_rooms": 109, "city": "New York", "zip_code": "NY 10128", "hotel_type_id": 204, "city_id": 20088325, "address": "301 East 94th Street", "hotel_class": 3, "name": "The Marmara Manhattan", "district_id": 929, "url": "https:\/\/www.booking.com\/hotel\/us\/the-marmara-manhattan.html" }, "geometry": { "type": "Point", "coordinates": [ -73.94753, 40.78289 ] } },
{ "type": "Feature", "properties": { "hotel_id": 1911599, "longitude": -73.95875, "latitude": 40.72156, "num_rooms": 147, "city": "Brooklyn", "zip_code": "11249", "hotel_type_id": 204, "city_id": 20085207, "address": "96 Wythe Ave", "hotel_class": 5, "name": "The Williamsburg Hotel", "district_id": 1488, "url": "https:\/\/www.booking.com\/hotel\/us\/the-williamsburg.html" }, "geometry": { "type": "Point", "coordinates": [ -73.95875, 40.72156 ] } },
{ "type": "Feature", "properties": { "hotel_id": 59713, "longitude": -73.97383, "latitude": 40.78302, "num_rooms": 75, "city": "New York", "zip_code": "NY 10024", "hotel_type_id": 204, "city_id": 20088325, "address": "45 West 81st Street", "hotel_class": 3, "name": "Excelsior Hotel", "district_id": 929, "url": "https:\/\/www.booking.com\/hotel\/us\/excelsior-manhattan.html" }, "geometry": { "type": "Point", "coordinates": [ -73.97383, 40.78302 ] } },
{ "type": "Feature", "properties": { "hotel_id": 4063342, "longitude": -73.98432, "latitude": 40.75917, "num_rooms": 452, "city": "New York", "zip_code": "10036", "hotel_type_id": 204, "city_id": 20088325, "address": "20 Times Square, 701 7th Avenue at West 47th Street", "hotel_class": 5, "name": "Times Square EDITION New York", "district_id": 929, "url": "https:\/\/www.booking.com\/hotel\/us\/edition-the-times-square.html" }, "geometry": { "type": "Point", "coordinates": [ -73.98432, 40.75917 ] } },
{ "type": "Feature", "properties": { "hotel_id": 262833, "longitude": -73.9699, "latitude": 40.75736, "num_rooms": 321, "city": "New York", "zip_code": "NY 10022", "hotel_type_id": 204, "city_id": 20088325, "address": "866 Third Avenue", "hotel_class": 4, "name": "Courtyard New York Manhattan\/Midtown East", "district_id": 929, "url": "https:\/\/www.booking.com\/hotel\/us\/courtyard-new-york-manhattan-midtown-east.html" }, "geometry": { "type": "Point", "coordinates": [ -73.9699, 40.75736 ] } },
{ "type": "Feature", "properties": { "hotel_id": 1424666, "longitude": -73.99134, "latitude": 40.75513, "num_rooms": 271, "city": "New York", "zip_code": "NY 10018", "hotel_type_id": 204, "city_id": 20088325, "address": "585 8th Avenue", "hotel_class": 3, "name": "Holiday Inn New York City - Times Square", "district_id": 929, "url": "https:\/\/www.booking.com\/hotel\/us\/holiday-inn-new-york-times-square-south.html" }, "geometry": { "type": "Point", "coordinates": [ -73.99134, 40.75513 ] } },
{ "type": "Feature", "properties": { "hotel_id": 59304, "longitude": -73.98937, "latitude": 40.75779, "num_rooms": 873, "city": "New York", "zip_code": "NY 10036", "hotel_type_id": 204, "city_id": 20088325, "address": "270 West 43rd Street", "hotel_class": 5, "name": "Westin New York at Times Square", "district_id": 929, "url": "https:\/\/www.booking.com\/hotel\/us\/the-new-york-at-times-square.html" }, "geometry": { "type": "Point", "coordinates": [ -73.98937, 40.75779 ] } },
{ "type": "Feature", "properties": { "hotel_id": 239117, "longitude": -74.01387, "latitude": 40.70925, "num_rooms": 217, "city": "New York", "zip_code": "NY 10006", "hotel_type_id": 204, "city_id": 20088325, "address": "8 Albany Street", "hotel_class": 4, "name": "W New York - Downtown", "district_id": 929, "url": "https:\/\/www.booking.com\/hotel\/us\/w-new-york-downtown.html" }, "geometry": { "type": "Point", "coordinates": [ -74.01387, 40.70925 ] } },
{ "type": "Feature", "properties": { "hotel_id": 56343, "longitude": -73.96962, "latitude": 40.75056, "num_rooms": 439, "city": "New York", "zip_code": "NY 10017", "hotel_type_id": 204, "city_id": 20088325, "address": "One United Nations Plaza", "hotel_class": 4, "name": "Millennium Hilton New York One UN Plaza", "district_id": 929, "url": "https:\/\/www.booking.com\/hotel\/us\/millenium-un-plaza-new-york.html" }, "geometry": { "type": "Point", "coordinates": [ -73.96962, 40.75056 ] } },
{ "type": "Feature", "properties": { "hotel_id": 183566, "longitude": -74.01385, "latitude": 40.70981, "num_rooms": 169, "city": "New York", "zip_code": "NY 10006", "hotel_type_id": 204, "city_id": 20088325, "address": "144 Washington Street", "hotel_class": 4, "name": "World Center Hotel", "district_id": 929, "url": "https:\/\/www.booking.com\/hotel\/us\/world-center.html" }, "geometry": { "type": "Point", "coordinates": [ -74.01385, 40.70981 ] } },
{ "type": "Feature", "properties": { "hotel_id": 23156, "longitude": -73.98452, "latitude": 40.75973, "num_rooms": 317, "city": "New York", "zip_code": "NY 10036", "hotel_type_id": 204, "city_id": 20088325, "address": "714 Seventh Avenue", "hotel_class": 4, "name": "Renaissance New York Times Square Hotel", "district_id": 929, "url": "https:\/\/www.booking.com\/hotel\/us\/renaissance-times-square.html" }, "geometry": { "type": "Point", "coordinates": [ -73.98452, 40.75973 ] } },
{ "type": "Feature", "properties": { "hotel_id": 59751, "longitude": -73.80608, "latitude": 40.66572, "num_rooms": 192, "city": "Queens", "zip_code": "NY 11430", "hotel_type_id": 204, "city_id": 20089077, "address": "148-18 134th Street", "hotel_class": 3, "name": "Hilton Garden Inn Queens\/JFK", "district_id": 3683, "url": "https:\/\/www.booking.com\/hotel\/us\/garden-inn-queens-jfk.html" }, "geometry": { "type": "Point", "coordinates": [ -73.80608, 40.66572 ] } },
{ "type": "Feature", "properties": { "hotel_id": 183788, "longitude": -74.00309, "latitude": 40.72395, "num_rooms": 97, "city": "New York", "zip_code": "NY 10012", "hotel_type_id": 204, "city_id": 20088325, "address": "60 Thompson Street", "hotel_class": 5, "name": "SIXTY SoHo", "district_id": 929, "url": "https:\/\/www.booking.com\/hotel\/us\/sixty-soho.html" }, "geometry": { "type": "Point", "coordinates": [ -74.00309, 40.72395 ] } },
{ "type": "Feature", "properties": { "hotel_id": 4542085, "longitude": -73.94251, "latitude": 40.75655, "num_rooms": 144, "city": "Queens", "zip_code": "NY 11101", "hotel_type_id": 204, "city_id": 20089077, "address": "38-70 12th Street", "hotel_class": 3, "name": "Wingate by Wyndham Long Island City", "district_id": 1534, "url": "https:\/\/www.booking.com\/hotel\/us\/wingate-by-wyndham-long-island-city.html" }, "geometry": { "type": "Point", "coordinates": [ -73.94251, 40.75655 ] } },
{ "type": "Feature", "properties": { "hotel_id": 1829019, "longitude": -73.99679, "latitude": 40.71594, "num_rooms": 229, "city": "New York", "zip_code": "NY 10013", "hotel_type_id": 204, "city_id": 20088325, "address": "50 Bowery", "hotel_class": 4, "name": "Hotel 50 Bowery", "district_id": 929, "url": "https:\/\/www.booking.com\/hotel\/us\/50-bowery.html" }, "geometry": { "type": "Point", "coordinates": [ -73.99679, 40.71594 ] } },
{ "type": "Feature", "properties": { "hotel_id": 5018321, "longitude": -74.00241, "latitude": 40.75456, "num_rooms": 212, "city": "New York", "zip_code": "NY 10001", "hotel_type_id": 204, "city_id": 20088325, "address": "33 Hudson Yards", "hotel_class": 5, "name": "Equinox Hotel Hudson Yards New York City", "district_id": 929, "url": "https:\/\/www.booking.com\/hotel\/us\/equinox-hudson-yards.html" }, "geometry": { "type": "Point", "coordinates": [ -74.00241, 40.75456 ] } },
{ "type": "Feature", "properties": { "hotel_id": 1363911, "longitude": -74.00468, "latitude": 40.65176, "num_rooms": 65, "city": "Brooklyn", "zip_code": "NY 11232", "hotel_type_id": 204, "city_id": 20085207, "address": "457 39th Street", "hotel_class": 4, "name": "Wyndham Garden Brooklyn Sunset Park", "district_id": 0, "url": "https:\/\/www.booking.com\/hotel\/us\/wyndham-garden-barclays-center-brooklyn-new-york.html" }, "geometry": { "type": "Point", "coordinates": [ -74.00468, 40.65176 ] } },
{ "type": "Feature", "properties": { "hotel_id": 56021, "longitude": -73.97751, "latitude": 40.75031, "num_rooms": 173, "city": "New York", "zip_code": "NY 10016", "hotel_type_id": 204, "city_id": 20088325, "address": "118 East 40th Street", "hotel_class": 4, "name": "The Renwick Hotel New York City, Curio Collection by Hilton", "district_id": 929, "url": "https:\/\/www.booking.com\/hotel\/us\/the-renwick.html" }, "geometry": { "type": "Point", "coordinates": [ -73.97751, 40.75031 ] } },
{ "type": "Feature", "properties": { "hotel_id": 262647, "longitude": -73.86735, "latitude": 40.76875, "num_rooms": 438, "city": "Queens", "zip_code": "NY 11369", "hotel_type_id": 204, "city_id": 20089077, "address": "102-05 Ditmars Boulevard", "hotel_class": 4, "name": "New York LaGuardia Airport Marriott", "district_id": 3685, "url": "https:\/\/www.booking.com\/hotel\/us\/new-york-laguardia-airport-marriott.html" }, "geometry": { "type": "Point", "coordinates": [ -73.86735, 40.76875 ] } },
{ "type": "Feature", "properties": { "hotel_id": 617915, "longitude": -73.98063, "latitude": 40.75647, "num_rooms": 196, "city": "New York", "zip_code": "NY 10036", "hotel_type_id": 204, "city_id": 20088325, "address": "30 West 46th Street", "hotel_class": 4, "name": "Cambria Hotel New York - Times Square", "district_id": 929, "url": "https:\/\/www.booking.com\/hotel\/us\/cambria-suites-new-york-times-square.html" }, "geometry": { "type": "Point", "coordinates": [ -73.98063, 40.75647 ] } },
{ "type": "Feature", "properties": { "hotel_id": 439306, "longitude": -73.97253, "latitude": 40.75482, "num_rooms": 211, "city": "New York", "zip_code": "NY 10017", "hotel_type_id": 204, "city_id": 20088325, "address": "148 East 48th Street ", "hotel_class": 4, "name": "Residence Inn by Marriott New York Manhattan\/ Midtown Eastside", "district_id": 929, "url": "https:\/\/www.booking.com\/hotel\/us\/residence-inn-by-marriott-new-york.html" }, "geometry": { "type": "Point", "coordinates": [ -73.97253, 40.75482 ] } },
{ "type": "Feature", "properties": { "hotel_id": 56667, "longitude": -73.98449, "latitude": 40.6781, "num_rooms": 115, "city": "Brooklyn", "zip_code": "NY 11215", "hotel_type_id": 204, "city_id": 20085207, "address": "625 Union Street", "hotel_class": 3, "name": "Holiday Inn Express Brooklyn", "district_id": 15417, "url": "https:\/\/www.booking.com\/hotel\/us\/holiday-inn-express-brooklyn.html" }, "geometry": { "type": "Point", "coordinates": [ -73.98449, 40.6781 ] } },
{ "type": "Feature", "properties": { "hotel_id": 22467, "longitude": -73.98877, "latitude": 40.73667, "num_rooms": 270, "city": "New York", "zip_code": "NY 10003", "hotel_type_id": 204, "city_id": 20088325, "address": "201 Park Avenue South", "hotel_class": 5, "name": "W New York - Union Square", "district_id": 929, "url": "https:\/\/www.booking.com\/hotel\/us\/w-new-york-union-square.html" }, "geometry": { "type": "Point", "coordinates": [ -73.98877, 40.73667 ] } },
{ "type": "Feature", "properties": { "hotel_id": 430962, "longitude": -73.97378, "latitude": 40.75036, "num_rooms": 774, "city": "New York", "zip_code": "NY 10017", "hotel_type_id": 204, "city_id": 20088325, "address": "212 East 42nd Street", "hotel_class": 4, "name": "The Westin New York Grand Central", "district_id": 929, "url": "https:\/\/www.booking.com\/hotel\/us\/westin-new-york-grand-central.html" }, "geometry": { "type": "Point", "coordinates": [ -73.97378, 40.75036 ] } },
{ "type": "Feature", "properties": { "hotel_id": 55825, "longitude": -73.98458, "latitude": 40.74672, "num_rooms": 100, "city": "New York", "zip_code": "NY 10016", "hotel_type_id": 204, "city_id": 20088325, "address": "16 East 32nd Street", "hotel_class": 4, "name": "Avalon Hotel", "district_id": 929, "url": "https:\/\/www.booking.com\/hotel\/us\/vincci-avalon.html" }, "geometry": { "type": "Point", "coordinates": [ -73.98458, 40.74672 ] } },
{ "type": "Feature", "properties": { "hotel_id": 2769928, "longitude": -73.98425, "latitude": 40.73983, "num_rooms": 395, "city": "New York", "zip_code": "10010", "hotel_type_id": 204, "city_id": 20088325, "address": "23 Lexington Avenue", "hotel_class": 4, "name": "Freehand New York", "district_id": 929, "url": "https:\/\/www.booking.com\/hotel\/us\/freehand-new-york.html" }, "geometry": { "type": "Point", "coordinates": [ -73.98425, 40.73983 ] } },
{ "type": "Feature", "properties": { "hotel_id": 1345044, "longitude": -73.98541, "latitude": 40.75034, "num_rooms": 161, "city": "New York", "zip_code": "NY 10018", "hotel_type_id": 204, "city_id": 20088325, "address": "38 West 36th Street", "hotel_class": 4, "name": "Executive Hotel Le Soleil New York", "district_id": 929, "url": "https:\/\/www.booking.com\/hotel\/us\/executive-le-soleil.html" }, "geometry": { "type": "Point", "coordinates": [ -73.98541, 40.75034 ] } },
{ "type": "Feature", "properties": { "hotel_id": 56937, "longitude": -73.99011, "latitude": 40.74813, "num_rooms": 136, "city": "New York", "zip_code": "NY 10001", "hotel_type_id": 204, "city_id": 20088325, "address": "116 West 31st Street", "hotel_class": 3, "name": "Hampton Inn Madison Square Garden", "district_id": 929, "url": "https:\/\/www.booking.com\/hotel\/us\/hampton-inn-msga.html" }, "geometry": { "type": "Point", "coordinates": [ -73.99011, 40.74813 ] } },
{ "type": "Feature", "properties": { "hotel_id": 26976, "longitude": -74.01046, "latitude": 40.7112, "num_rooms": 569, "city": "New York", "zip_code": "NY 10007", "hotel_type_id": 204, "city_id": 20088325, "address": "55 Church Street", "hotel_class": 4, "name": "Millennium Hilton New York Downtown", "district_id": 929, "url": "https:\/\/www.booking.com\/hotel\/us\/millenium-hilton.html" }, "geometry": { "type": "Point", "coordinates": [ -74.01046, 40.7112 ] } },
{ "type": "Feature", "properties": { "hotel_id": 247914, "longitude": -73.98288, "latitude": 40.76904, "num_rooms": 244, "city": "New York", "zip_code": "NY 10023", "hotel_type_id": 204, "city_id": 20088325, "address": "80 Columbus Circle", "hotel_class": 5, "name": "Mandarin Oriental New York", "district_id": 929, "url": "https:\/\/www.booking.com\/hotel\/us\/mandarin-oriental.html" }, "geometry": { "type": "Point", "coordinates": [ -73.98288, 40.76904 ] } },
{ "type": "Feature", "properties": { "hotel_id": 22296, "longitude": -73.98533, "latitude": 40.75938, "num_rooms": 509, "city": "New York", "zip_code": "NY 10036", "hotel_type_id": 204, "city_id": 20088325, "address": "1567 Broadway", "hotel_class": 4, "name": "W New York - Times Square", "district_id": 929, "url": "https:\/\/www.booking.com\/hotel\/us\/w-new-york-times-square.html" }, "geometry": { "type": "Point", "coordinates": [ -73.98533, 40.75938 ] } },
{ "type": "Feature", "properties": { "hotel_id": 257298, "longitude": -74.00575, "latitude": 40.72754, "num_rooms": 120, "city": "New York", "zip_code": "NY 10014", "hotel_type_id": 204, "city_id": 20088325, "address": "181 Varick Street", "hotel_class": 4, "name": "Courtyard by Marriott New York Manhattan \/ Soho", "district_id": 929, "url": "https:\/\/www.booking.com\/hotel\/us\/courtyard-by-marriott-new-york-manhattan-soho.html" }, "geometry": { "type": "Point", "coordinates": [ -74.00575, 40.72754 ] } },
{ "type": "Feature", "properties": { "hotel_id": 257313, "longitude": -73.9918, "latitude": 40.75572, "num_rooms": 411, "city": "New York", "zip_code": "NY 10018", "hotel_type_id": 204, "city_id": 20088325, "address": "311 West 39th Street", "hotel_class": 3, "name": "Element Times Square West", "district_id": 929, "url": "https:\/\/www.booking.com\/hotel\/us\/element-times-square.html" }, "geometry": { "type": "Point", "coordinates": [ -73.9918, 40.75572 ] } },
{ "type": "Feature", "properties": { "hotel_id": 56409, "longitude": -73.97496, "latitude": 40.75934, "num_rooms": 398, "city": "New York", "zip_code": "NY 10022", "hotel_type_id": 204, "city_id": 20088325, "address": "21 East 52nd Street", "hotel_class": 4, "name": "Omni Berkshire Place", "district_id": 929, "url": "https:\/\/www.booking.com\/hotel\/us\/omni-bershire-place.html" }, "geometry": { "type": "Point", "coordinates": [ -73.97496, 40.75934 ] } },
{ "type": "Feature", "properties": { "hotel_id": 1397916, "longitude": -73.98844, "latitude": 40.76025, "num_rooms": 647, "city": "New York", "zip_code": "NY 10036", "hotel_type_id": 204, "city_id": 20088325, "address": "307-311 46th Street", "hotel_class": 4, "name": "Hotel Riu Plaza New York Times Square", "district_id": 929, "url": "https:\/\/www.booking.com\/hotel\/us\/riu-plaza-new-york-times-square.html" }, "geometry": { "type": "Point", "coordinates": [ -73.98844, 40.76025 ] } },
{ "type": "Feature", "properties": { "hotel_id": 259143, "longitude": -73.98372, "latitude": 40.68048, "num_rooms": 133, "city": "Brooklyn", "zip_code": "NY 11217", "hotel_type_id": 204, "city_id": 20085207, "address": "181 3rd Avenue", "hotel_class": 3, "name": "Fairfield Inn & Suites By Marriott New York Brooklyn", "district_id": 15417, "url": "https:\/\/www.booking.com\/hotel\/us\/fairfield-inn-suites-by-marriott-brooklyn.html" }, "geometry": { "type": "Point", "coordinates": [ -73.98372, 40.68048 ] } },
{ "type": "Feature", "properties": { "hotel_id": 57473, "longitude": -73.98366, "latitude": 40.7628, "num_rooms": 480, "city": "New York", "zip_code": "NY 10019", "hotel_type_id": 204, "city_id": 20088325, "address": "226 West 52nd Street", "hotel_class": 4, "name": "Novotel New York Times Square", "district_id": 929, "url": "https:\/\/www.booking.com\/hotel\/us\/new-york-times-square.html" }, "geometry": { "type": "Point", "coordinates": [ -73.98366, 40.7628 ] } },
{ "type": "Feature", "properties": { "hotel_id": 2210104, "longitude": -73.99354, "latitude": 40.75456, "num_rooms": 250, "city": "New York", "zip_code": "NY 10018", "hotel_type_id": 204, "city_id": 20088325, "address": "326 West 37th Street   ", "hotel_class": 3, "name": "Hilton Garden Inn New York Times Square South", "district_id": 929, "url": "https:\/\/www.booking.com\/hotel\/us\/hilton-garden-inn-west-37th-times-square-south.html" }, "geometry": { "type": "Point", "coordinates": [ -73.99354, 40.75456 ] } },
{ "type": "Feature", "properties": { "hotel_id": 1341215, "longitude": -73.99401, "latitude": 40.75329, "num_rooms": 150, "city": "New York", "zip_code": "NY 10001", "hotel_type_id": 204, "city_id": 20088325, "address": "321 West 35th Street", "hotel_class": 4, "name": "EVEN Hotel New York Times Square South", "district_id": 929, "url": "https:\/\/www.booking.com\/hotel\/us\/even-new-york-times-square-south.html" }, "geometry": { "type": "Point", "coordinates": [ -73.99401, 40.75329 ] } },
{ "type": "Feature", "properties": { "hotel_id": 57746, "longitude": -74.00145, "latitude": 40.70798, "num_rooms": 66, "city": "New York", "zip_code": "10038", "hotel_type_id": 204, "city_id": 20088325, "address": "33 Peck Slip", "hotel_class": 5, "name": "Mr C Seaport", "district_id": 929, "url": "https:\/\/www.booking.com\/hotel\/us\/seaport-downtown.html" }, "geometry": { "type": "Point", "coordinates": [ -74.00145, 40.70798 ] } },
{ "type": "Feature", "properties": { "hotel_id": 599343, "longitude": -73.91628, "latitude": 40.81481, "num_rooms": 60, "city": "Bronx", "zip_code": "NY 10455", "hotel_type_id": 204, "city_id": 20085196, "address": "436 East 149th Street", "hotel_class": 3, "name": "Opera House Hotel", "district_id": 15370, "url": "https:\/\/www.booking.com\/hotel\/us\/opera-house.html" }, "geometry": { "type": "Point", "coordinates": [ -73.91628, 40.81481 ] } },
{ "type": "Feature", "properties": { "hotel_id": 492831, "longitude": -73.98682, "latitude": 40.7503, "num_rooms": 167, "city": "New York", "zip_code": "NY 10001", "hotel_type_id": 204, "city_id": 20088325, "address": "8 Herald Square, 71 W 35th Street,", "hotel_class": 4, "name": "Courtyard by Marriott New York Manhattan\/Herald Square", "district_id": 929, "url": "https:\/\/www.booking.com\/hotel\/us\/new-york-manhattan-herald-square.html" }, "geometry": { "type": "Point", "coordinates": [ -73.98682, 40.7503 ] } },
{ "type": "Feature", "properties": { "hotel_id": 181844, "longitude": -73.98014, "latitude": 40.75575, "num_rooms": 124, "city": "New York", "zip_code": "NY 10036", "hotel_type_id": 204, "city_id": 20088325, "address": "15 West 45th Street", "hotel_class": 3, "name": "Citadines Connect Fifth Avenue New York", "district_id": 929, "url": "https:\/\/www.booking.com\/hotel\/us\/citadines-connect-fifth-avenue-new-york.html" }, "geometry": { "type": "Point", "coordinates": [ -73.98014, 40.75575 ] } },
{ "type": "Feature", "properties": { "hotel_id": 24887, "longitude": -73.98479, "latitude": 40.74456, "num_rooms": 261, "city": "New York", "zip_code": "NY 10016", "hotel_type_id": 204, "city_id": 20088325, "address": "29 East 29th Street", "hotel_class": 4, "name": "The Redbury New York", "district_id": 929, "url": "https:\/\/www.booking.com\/hotel\/us\/the-redbury-new-york.html" }, "geometry": { "type": "Point", "coordinates": [ -73.98479, 40.74456 ] } },
{ "type": "Feature", "properties": { "hotel_id": 302134, "longitude": -73.99742, "latitude": 40.72305, "num_rooms": 86, "city": "New York", "zip_code": "NY 10012", "hotel_type_id": 204, "city_id": 20088325, "address": "79 Crosby Street", "hotel_class": 5, "name": "Crosby Street Hotel", "district_id": 929, "url": "https:\/\/www.booking.com\/hotel\/us\/crosby-street.html" }, "geometry": { "type": "Point", "coordinates": [ -73.99742, 40.72305 ] } },
{ "type": "Feature", "properties": { "hotel_id": 262832, "longitude": -73.97275, "latitude": 40.75557, "num_rooms": 655, "city": "New York", "zip_code": "NY 10017", "hotel_type_id": 204, "city_id": 20088325, "address": "525 Lexington Avenue at 49th Street", "hotel_class": 4, "name": "New York Marriott East Side", "district_id": 929, "url": "https:\/\/www.booking.com\/hotel\/us\/new-york-marriott-east-side.html" }, "geometry": { "type": "Point", "coordinates": [ -73.97275, 40.75557 ] } },
{ "type": "Feature", "properties": { "hotel_id": 58695, "longitude": -73.97428, "latitude": 40.75567, "num_rooms": 703, "city": "New York", "zip_code": "10017", "hotel_type_id": 204, "city_id": 20088325, "address": "111 East 48th Street", "hotel_class": 5, "name": "InterContinental New York Barclay Hotel", "district_id": 929, "url": "https:\/\/www.booking.com\/hotel\/us\/icg-the-barclay-new-york.html" }, "geometry": { "type": "Point", "coordinates": [ -73.97428, 40.75567 ] } },
{ "type": "Feature", "properties": { "hotel_id": 56018, "longitude": -73.97348, "latitude": 40.75476, "num_rooms": 132, "city": "New York", "zip_code": "NY 10017", "hotel_type_id": 204, "city_id": 20088325, "address": "501 Lexington Avenue", "hotel_class": 3, "name": "Roger Smith Hotel", "district_id": 929, "url": "https:\/\/www.booking.com\/hotel\/us\/roger-smith.html" }, "geometry": { "type": "Point", "coordinates": [ -73.97348, 40.75476 ] } },
{ "type": "Feature", "properties": { "hotel_id": 606889, "longitude": -74.00641, "latitude": 40.7075, "num_rooms": 261, "city": "New York", "zip_code": "NY 10038", "hotel_type_id": 204, "city_id": 20088325, "address": "6 Platt Street", "hotel_class": 3, "name": "Four Points by Sheraton New York Downtown", "district_id": 929, "url": "https:\/\/www.booking.com\/hotel\/us\/four-points-by-sheraton-financial-district.html" }, "geometry": { "type": "Point", "coordinates": [ -74.00641, 40.7075 ] } },
{ "type": "Feature", "properties": { "hotel_id": 1783402, "longitude": -73.98969, "latitude": 40.77045, "num_rooms": 226, "city": "New York", "zip_code": "NY 10019", "hotel_type_id": 204, "city_id": 20088325, "address": "538 West 58th Street", "hotel_class": 3, "name": "Fairfield Inn & Suites by Marriott New York Manhattan\/Central Park", "district_id": 929, "url": "https:\/\/www.booking.com\/hotel\/us\/fairfield-inn-suites-by-marriott-new-york-manhattan-central-park.html" }, "geometry": { "type": "Point", "coordinates": [ -73.98969, 40.77045 ] } },
{ "type": "Feature", "properties": { "hotel_id": 2291137, "longitude": -74.01218, "latitude": 40.70283, "num_rooms": 250, "city": "New York", "zip_code": "NY 10004", "hotel_type_id": 204, "city_id": 20088325, "address": "6 Water Street   ", "hotel_class": 3, "name": "Hilton Garden Inn NYC Financial Center\/Manhattan Downtown", "district_id": 929, "url": "https:\/\/www.booking.com\/hotel\/us\/hilton-garden-inn-financial-center-manhattan-downtown-ny.html" }, "geometry": { "type": "Point", "coordinates": [ -74.01218, 40.70283 ] } },
{ "type": "Feature", "properties": { "hotel_id": 484349, "longitude": -73.9723, "latitude": 40.75083, "num_rooms": 148, "city": "New York", "zip_code": "NY 10017", "hotel_type_id": 204, "city_id": 20088325, "address": "231 East 43rd Street", "hotel_class": 4, "name": "Hampton Inn Manhattan Grand Central", "district_id": 929, "url": "https:\/\/www.booking.com\/hotel\/us\/hampton-inn-manhattan-united-nations.html" }, "geometry": { "type": "Point", "coordinates": [ -73.9723, 40.75083 ] } },
{ "type": "Feature", "properties": { "hotel_id": 56107, "longitude": -73.96456, "latitude": 40.75803, "num_rooms": 76, "city": "New York", "zip_code": "NY 10022", "hotel_type_id": 219, "city_id": 20088325, "address": "330 East 56th Street", "hotel_class": 4, "name": "AKA Sutton Place", "district_id": 929, "url": "https:\/\/www.booking.com\/hotel\/us\/korman-communities-sutton-place.html" }, "geometry": { "type": "Point", "coordinates": [ -73.96456, 40.75803 ] } },
{ "type": "Feature", "properties": { "hotel_id": 56938, "longitude": -73.99305, "latitude": 40.74374, "num_rooms": 144, "city": "New York", "zip_code": "NY 10011", "hotel_type_id": 204, "city_id": 20088325, "address": "108 West 24th Street", "hotel_class": 3, "name": "Hampton Inn Manhattan Chelsea", "district_id": 929, "url": "https:\/\/www.booking.com\/hotel\/us\/hampton-inn-manhattan-chelsea.html" }, "geometry": { "type": "Point", "coordinates": [ -73.99305, 40.74374 ] } },
{ "type": "Feature", "properties": { "hotel_id": 423075, "longitude": -73.98108, "latitude": 40.75279, "num_rooms": 184, "city": "New York", "zip_code": "NY 10017", "hotel_type_id": 204, "city_id": 20088325, "address": "485 5th Avenue", "hotel_class": 4, "name": "Andaz 5th Avenue-a concept by Hyatt", "district_id": 929, "url": "https:\/\/www.booking.com\/hotel\/us\/andaz-5th-avenue.html" }, "geometry": { "type": "Point", "coordinates": [ -73.98108, 40.75279 ] } },
{ "type": "Feature", "properties": { "hotel_id": 329667, "longitude": -74.00337, "latitude": 40.75061, "num_rooms": 56, "city": "New York", "zip_code": "NY 10001", "hotel_type_id": 204, "city_id": 20088325, "address": "518 West 27th Street", "hotel_class": 4, "name": "Selina Chelsea", "district_id": 929, "url": "https:\/\/www.booking.com\/hotel\/us\/selina-chelsea.html" }, "geometry": { "type": "Point", "coordinates": [ -74.00337, 40.75061 ] } },
{ "type": "Feature", "properties": { "hotel_id": 56936, "longitude": -74.00217, "latitude": 40.70895, "num_rooms": 65, "city": "New York", "zip_code": "NY 10038", "hotel_type_id": 204, "city_id": 20088325, "address": "320 Pearl Street", "hotel_class": 3, "name": "Hampton Inn Seaport Financial District", "district_id": 929, "url": "https:\/\/www.booking.com\/hotel\/us\/hampton-inn-seaport-financial-district.html" }, "geometry": { "type": "Point", "coordinates": [ -74.00217, 40.70895 ] } },
{ "type": "Feature", "properties": { "hotel_id": 1296042, "longitude": -73.98777, "latitude": 40.74113, "num_rooms": 273, "city": "New York", "zip_code": "NY 10010", "hotel_type_id": 204, "city_id": 20088325, "address": "5 Madison Avenue", "hotel_class": 5, "name": "New York EDITION", "district_id": 929, "url": "https:\/\/www.booking.com\/hotel\/us\/the-new-york-edition-hotel-45.html" }, "geometry": { "type": "Point", "coordinates": [ -73.98777, 40.74113 ] } },
{ "type": "Feature", "properties": { "hotel_id": 56113, "longitude": -73.97211, "latitude": 40.75568, "num_rooms": 35, "city": "New York", "zip_code": "NY 10017", "hotel_type_id": 204, "city_id": 20088325, "address": "145 East 49th Street", "hotel_class": 3, "name": "Best Western Plus Hospitality House Suites", "district_id": 929, "url": "https:\/\/www.booking.com\/hotel\/us\/best-western-hospitality-house.html" }, "geometry": { "type": "Point", "coordinates": [ -73.97211, 40.75568 ] } },
{ "type": "Feature", "properties": { "hotel_id": 310740, "longitude": -73.94757, "latitude": 40.75193, "num_rooms": 100, "city": "Queens", "zip_code": "NY 11101", "hotel_type_id": 204, "city_id": 20089077, "address": "11-01 43rd Avenue", "hotel_class": 4, "name": "Z NYC Hotel", "district_id": 1534, "url": "https:\/\/www.booking.com\/hotel\/us\/z-new-york.html" }, "geometry": { "type": "Point", "coordinates": [ -73.94757, 40.75193 ] } },
{ "type": "Feature", "properties": { "hotel_id": 182258, "longitude": -73.93448, "latitude": 40.75326, "num_rooms": 136, "city": "Queens", "zip_code": "NY 11101", "hotel_type_id": 204, "city_id": 20089077, "address": "39-05 29th Street", "hotel_class": 3, "name": "Holiday Inn Long Island City - Manhattan View", "district_id": 1534, "url": "https:\/\/www.booking.com\/hotel\/us\/holiday-inn-long-island-city-manhattan-view.html" }, "geometry": { "type": "Point", "coordinates": [ -73.93448, 40.75326 ] } },
{ "type": "Feature", "properties": { "hotel_id": 587439, "longitude": -73.98259, "latitude": 40.76409, "num_rooms": 261, "city": "New York", "zip_code": "NY 10019", "hotel_type_id": 204, "city_id": 20088325, "address": "1717 Broadway", "hotel_class": 4, "name": "Residence Inn by Marriott New York Manhattan\/Central Park", "district_id": 929, "url": "https:\/\/www.booking.com\/hotel\/us\/residence-inn-by-marriott-new-york-manhattan-central-park-new-york.html" }, "geometry": { "type": "Point", "coordinates": [ -73.98259, 40.76409 ] } },
{ "type": "Feature", "properties": { "hotel_id": 260798, "longitude": -73.98487, "latitude": 40.69155, "num_rooms": 176, "city": "Brooklyn", "zip_code": "NY 11201", "hotel_type_id": 204, "city_id": 20085207, "address": "216 Duffield Street", "hotel_class": 3, "name": "Aloft Brooklyn", "district_id": 4314, "url": "https:\/\/www.booking.com\/hotel\/us\/aloft-brooklyn.html" }, "geometry": { "type": "Point", "coordinates": [ -73.98487, 40.69155 ] } },
{ "type": "Feature", "properties": { "hotel_id": 59518, "longitude": -73.99227, "latitude": 40.76436, "num_rooms": 231, "city": "New York", "zip_code": "NY 10019", "hotel_type_id": 204, "city_id": 20088325, "address": "725 Tenth Avenue", "hotel_class": 3, "name": "The Skyline Hotel New York", "district_id": 929, "url": "https:\/\/www.booking.com\/hotel\/us\/the-s-new-york-new-york.html" }, "geometry": { "type": "Point", "coordinates": [ -73.99227, 40.76436 ] } },
{ "type": "Feature", "properties": { "hotel_id": 56035, "longitude": -73.96394, "latitude": 40.77443, "num_rooms": 188, "city": "New York", "zip_code": "NY 10021", "hotel_type_id": 204, "city_id": 20088325, "address": "20 East 76th Street", "hotel_class": 5, "name": "The Surrey", "district_id": 929, "url": "https:\/\/www.booking.com\/hotel\/us\/surrey.html" }, "geometry": { "type": "Point", "coordinates": [ -73.96394, 40.77443 ] } },
{ "type": "Feature", "properties": { "hotel_id": 330730, "longitude": -73.97301, "latitude": 40.75518, "num_rooms": 116, "city": "New York", "zip_code": "NY 10017", "hotel_type_id": 204, "city_id": 20088325, "address": "517 Lexington Avenue", "hotel_class": 4, "name": "Hotel 48LEX New York", "district_id": 929, "url": "https:\/\/www.booking.com\/hotel\/us\/new-york-517-lexington-avenue.html" }, "geometry": { "type": "Point", "coordinates": [ -73.97301, 40.75518 ] } },
{ "type": "Feature", "properties": { "hotel_id": 256968, "longitude": -74.00423, "latitude": 40.72083, "num_rooms": 369, "city": "New York", "zip_code": "NY 10013", "hotel_type_id": 204, "city_id": 20088325, "address": "370 Canal Street", "hotel_class": 4, "name": "Sheraton Tribeca New York Hotel", "district_id": 929, "url": "https:\/\/www.booking.com\/hotel\/us\/sheraton-tribeca-new-york.html" }, "geometry": { "type": "Point", "coordinates": [ -74.00423, 40.72083 ] } },
{ "type": "Feature", "properties": { "hotel_id": 56166, "longitude": -73.98191, "latitude": 40.75596, "num_rooms": 168, "city": "New York", "zip_code": "NY 10036", "hotel_type_id": 204, "city_id": 20088325, "address": "44 West 44th Street", "hotel_class": 4, "name": "Royalton New York", "district_id": 929, "url": "https:\/\/www.booking.com\/hotel\/us\/royalton.html" }, "geometry": { "type": "Point", "coordinates": [ -73.98191, 40.75596 ] } },
{ "type": "Feature", "properties": { "hotel_id": 3175233, "longitude": -74.00874, "latitude": 40.70996, "num_rooms": 75, "city": "New York", "zip_code": "NY 10038", "hotel_type_id": 204, "city_id": 20088325, "address": "17 John Street", "hotel_class": 4, "name": "The Assemblage John Street", "district_id": 929, "url": "https:\/\/www.booking.com\/hotel\/us\/the-assemblage-john-street.html" }, "geometry": { "type": "Point", "coordinates": [ -74.00874, 40.70996 ] } },
{ "type": "Feature", "properties": { "hotel_id": 1231967, "longitude": -73.9875, "latitude": 40.72172, "num_rooms": 293, "city": "New York", "zip_code": "NY 10002", "hotel_type_id": 204, "city_id": 20088325, "address": "171 Ludlow Street", "hotel_class": 4, "name": "Hotel Indigo Lower East Side", "district_id": 929, "url": "https:\/\/www.booking.com\/hotel\/us\/indigo-lower-east-side.html" }, "geometry": { "type": "Point", "coordinates": [ -73.9875, 40.72172 ] } },
{ "type": "Feature", "properties": { "hotel_id": 270490, "longitude": -73.97439, "latitude": 40.76141, "num_rooms": 238, "city": "New York", "zip_code": "NY 10022", "hotel_type_id": 204, "city_id": 20088325, "address": "Two East 55th Street at Fifth Avenue", "hotel_class": 5, "name": "The St. Regis New York", "district_id": 929, "url": "https:\/\/www.booking.com\/hotel\/us\/st-regis-new-york.html" }, "geometry": { "type": "Point", "coordinates": [ -73.97439, 40.76141 ] } },
{ "type": "Feature", "properties": { "hotel_id": 500155, "longitude": -73.98073, "latitude": 40.76339, "num_rooms": 562, "city": "New York", "zip_code": "NY 10019 ", "hotel_type_id": 204, "city_id": 20088325, "address": "151 West 54th Street", "hotel_class": 5, "name": "Conrad New York Midtown", "district_id": 929, "url": "https:\/\/www.booking.com\/hotel\/us\/the-conrad-new-york-midtown.html" }, "geometry": { "type": "Point", "coordinates": [ -73.98073, 40.76339 ] } },
{ "type": "Feature", "properties": { "hotel_id": 56167, "longitude": -73.98493, "latitude": 40.76825, "num_rooms": 876, "city": "New York", "zip_code": "NY 10019", "hotel_type_id": 204, "city_id": 20088325, "address": "358 West 58th Street", "hotel_class": 3, "name": "Hudson New York", "district_id": 929, "url": "https:\/\/www.booking.com\/hotel\/us\/hudson.html" }, "geometry": { "type": "Point", "coordinates": [ -73.98493, 40.76825 ] } },
{ "type": "Feature", "properties": { "hotel_id": 55861, "longitude": -73.97637, "latitude": 40.76242, "num_rooms": 177, "city": "New York", "zip_code": "NY 10019", "hotel_type_id": 204, "city_id": 20088325, "address": "33 West 55th Street", "hotel_class": 4, "name": "Shoreham Hotel", "district_id": 929, "url": "https:\/\/www.booking.com\/hotel\/us\/shoreham.html" }, "geometry": { "type": "Point", "coordinates": [ -73.97637, 40.76242 ] } },
{ "type": "Feature", "properties": { "hotel_id": 2645250, "longitude": -73.99018, "latitude": 40.75543, "num_rooms": 290, "city": "New York", "zip_code": "NY 10018", "hotel_type_id": 204, "city_id": 20088325, "address": "260 West 40th Street", "hotel_class": 4, "name": "AC Hotel by Marriott New York Times Square", "district_id": 929, "url": "https:\/\/www.booking.com\/hotel\/us\/ac-by-marriott-new-york-times-square.html" }, "geometry": { "type": "Point", "coordinates": [ -73.99018, 40.75543 ] } },
{ "type": "Feature", "properties": { "hotel_id": 255384, "longitude": -74.00002, "latitude": 40.71982, "num_rooms": 263, "city": "New York", "zip_code": "NY 10013", "hotel_type_id": 204, "city_id": 20088325, "address": "9 Crosby Street", "hotel_class": 5, "name": "NoMo SoHo", "district_id": 929, "url": "https:\/\/www.booking.com\/hotel\/us\/nomo-soho.html" }, "geometry": { "type": "Point", "coordinates": [ -74.00002, 40.71982 ] } },
{ "type": "Feature", "properties": { "hotel_id": 244106, "longitude": -73.98856, "latitude": 40.69368, "num_rooms": 666, "city": "Brooklyn", "zip_code": "NY 11201", "hotel_type_id": 204, "city_id": 20085207, "address": "333 Adams Street", "hotel_class": 4, "name": "New York Marriott at the Brooklyn Bridge", "district_id": 4314, "url": "https:\/\/www.booking.com\/hotel\/us\/new-york-marriott-at-the-brooklyn-bridge.html" }, "geometry": { "type": "Point", "coordinates": [ -73.98856, 40.69368 ] } },
{ "type": "Feature", "properties": { "hotel_id": 1169919, "longitude": -73.98635, "latitude": 40.75968, "num_rooms": 810, "city": "New York", "zip_code": "NY 10036", "hotel_type_id": 204, "city_id": 20088325, "address": "228 West 47th Street", "hotel_class": 3, "name": "Hotel Edison Times Square", "district_id": 929, "url": "https:\/\/www.booking.com\/hotel\/us\/edison-triumph-group.html" }, "geometry": { "type": "Point", "coordinates": [ -73.98635, 40.75968 ] } },
{ "type": "Feature", "properties": { "hotel_id": 56927, "longitude": -73.98123, "latitude": 40.78071, "num_rooms": 267, "city": "New York", "zip_code": "NY 10023", "hotel_type_id": 204, "city_id": 20088325, "address": "2130 Broadway", "hotel_class": 4, "name": "Hotel Beacon", "district_id": 929, "url": "https:\/\/www.booking.com\/hotel\/us\/beacon.html" }, "geometry": { "type": "Point", "coordinates": [ -73.98123, 40.78071 ] } },
{ "type": "Feature", "properties": { "hotel_id": 437516, "longitude": -73.99533, "latitude": 40.71703, "num_rooms": 106, "city": "New York", "zip_code": "NY 10002", "hotel_type_id": 204, "city_id": 20088325, "address": "93 Bowery Street", "hotel_class": 4, "name": "Wyndham Garden Chinatown", "district_id": 929, "url": "https:\/\/www.booking.com\/hotel\/us\/wyndam-garden-chinatown.html" }, "geometry": { "type": "Point", "coordinates": [ -73.99533, 40.71703 ] } },
{ "type": "Feature", "properties": { "hotel_id": 55830, "longitude": -73.98433, "latitude": 40.74574, "num_rooms": 194, "city": "New York", "zip_code": "NY 10016", "hotel_type_id": 204, "city_id": 20088325, "address": "131 Madison Avenue", "hotel_class": 4, "name": "The Roger", "district_id": 929, "url": "https:\/\/www.booking.com\/hotel\/us\/roger-williams.html" }, "geometry": { "type": "Point", "coordinates": [ -73.98433, 40.74574 ] } },
{ "type": "Feature", "properties": { "hotel_id": 2082655, "longitude": -73.99215, "latitude": 40.74687, "num_rooms": 122, "city": "New York", "zip_code": "NY 10001", "hotel_type_id": 204, "city_id": 20088325, "address": "127 West 28th Street", "hotel_class": 4, "name": "Hotel Hayden New York", "district_id": 929, "url": "https:\/\/www.booking.com\/hotel\/us\/hayden.html" }, "geometry": { "type": "Point", "coordinates": [ -73.99215, 40.74687 ] } },
{ "type": "Feature", "properties": { "hotel_id": 55948, "longitude": -73.98481, "latitude": 40.7569, "num_rooms": 625, "city": "New York", "zip_code": "NY 10036", "hotel_type_id": 204, "city_id": 20088325, "address": "145 West 44th Street", "hotel_class": 4, "name": "Millennium Times Square New York", "district_id": 929, "url": "https:\/\/www.booking.com\/hotel\/us\/millennium-broadway.html" }, "geometry": { "type": "Point", "coordinates": [ -73.98481, 40.7569 ] } },
{ "type": "Feature", "properties": { "hotel_id": 443305, "longitude": -73.99451, "latitude": 40.76411, "num_rooms": 179, "city": "New York", "zip_code": "NY 10036", "hotel_type_id": 204, "city_id": 20088325, "address": "538 West 48th Street ", "hotel_class": 3, "name": "Holiday Inn Express Manhattan Midtown West", "district_id": 929, "url": "https:\/\/www.booking.com\/hotel\/us\/holiday-inn-express-manhattan-midtown-west.html" }, "geometry": { "type": "Point", "coordinates": [ -73.99451, 40.76411 ] } },
{ "type": "Feature", "properties": { "hotel_id": 2380425, "longitude": -73.99546, "latitude": 40.75916, "num_rooms": 713, "city": "New York", "zip_code": "NY 10036", "hotel_type_id": 204, "city_id": 20088325, "address": "570 10th Avenue", "hotel_class": 4, "name": "YOTEL New York Times Square", "district_id": 929, "url": "https:\/\/www.booking.com\/hotel\/us\/yotel-new-york-at-times-square.html" }, "geometry": { "type": "Point", "coordinates": [ -73.99546, 40.75916 ] } },
{ "type": "Feature", "properties": { "hotel_id": 180769, "longitude": -73.97646, "latitude": 40.75182, "num_rooms": 1306, "city": "New York", "zip_code": "NY 10017", "hotel_type_id": 204, "city_id": 20088325, "address": "109 East 42nd Street, Park Avenue at Grand Central Terminal", "hotel_class": 4, "name": "Grand Hyatt New York", "district_id": 929, "url": "https:\/\/www.booking.com\/hotel\/us\/grand-hyatt-new-york.html" }, "geometry": { "type": "Point", "coordinates": [ -73.97646, 40.75182 ] } },
{ "type": "Feature", "properties": { "hotel_id": 56552, "longitude": -73.97299, "latitude": 40.75502, "num_rooms": 725, "city": "New York", "zip_code": "NY 10017 ", "hotel_type_id": 204, "city_id": 20088325, "address": "511 Lexington Avenue at 48th Street", "hotel_class": 4, "name": "The Lexington Hotel, Autograph Collection", "district_id": 929, "url": "https:\/\/www.booking.com\/hotel\/us\/the-lexington-new-york.html" }, "geometry": { "type": "Point", "coordinates": [ -73.97299, 40.75502 ] } },
{ "type": "Feature", "properties": { "hotel_id": 56429, "longitude": -73.98609, "latitude": 40.74988, "num_rooms": 132, "city": "New York", "zip_code": "NY 10001", "hotel_type_id": 204, "city_id": 20088325, "address": "42 West 35th Street", "hotel_class": 4, "name": "The Gregory", "district_id": 929, "url": "https:\/\/www.booking.com\/hotel\/us\/hotel-35-herald-square.html" }, "geometry": { "type": "Point", "coordinates": [ -73.98609, 40.74988 ] } },
{ "type": "Feature", "properties": { "hotel_id": 238114, "longitude": -73.98995, "latitude": 40.74722, "num_rooms": 292, "city": "New York", "zip_code": "NY 10001", "hotel_type_id": 204, "city_id": 20088325, "address": "851 Avenue of the Americas", "hotel_class": 5, "name": "Kimpton Hotel Eventi", "district_id": 929, "url": "https:\/\/www.booking.com\/hotel\/us\/eventi-a-kimpton.html" }, "geometry": { "type": "Point", "coordinates": [ -73.98995, 40.74722 ] } },
{ "type": "Feature", "properties": { "hotel_id": 56800, "longitude": -73.98846, "latitude": 40.75876, "num_rooms": 1300, "city": "New York", "zip_code": "NY 10036", "hotel_type_id": 204, "city_id": 20088325, "address": "700 8th Avenue", "hotel_class": 4, "name": "Row NYC at Times Square", "district_id": 929, "url": "https:\/\/www.booking.com\/hotel\/us\/milford-plaza.html" }, "geometry": { "type": "Point", "coordinates": [ -73.98846, 40.75876 ] } },
{ "type": "Feature", "properties": { "hotel_id": 1566879, "longitude": -73.95707, "latitude": 40.72209, "num_rooms": 183, "city": "Brooklyn", "zip_code": "NY 11249", "hotel_type_id": 204, "city_id": 20085207, "address": "111 North 12th Street", "hotel_class": 5, "name": "The William Vale", "district_id": 1488, "url": "https:\/\/www.booking.com\/hotel\/us\/the-william-vale.html" }, "geometry": { "type": "Point", "coordinates": [ -73.95707, 40.72209 ] } },
{ "type": "Feature", "properties": { "hotel_id": 56985, "longitude": -73.98094, "latitude": 40.76459, "num_rooms": 761, "city": "New York", "zip_code": "NY 10019", "hotel_type_id": 204, "city_id": 20088325, "address": "870 7th Avenue at 56th Street", "hotel_class": 4, "name": "Park Central", "district_id": 929, "url": "https:\/\/www.booking.com\/hotel\/us\/park-central.html" }, "geometry": { "type": "Point", "coordinates": [ -73.98094, 40.76459 ] } },
{ "type": "Feature", "properties": { "hotel_id": 1457823, "longitude": -73.93926, "latitude": 40.70074, "num_rooms": 115, "city": "Brooklyn", "zip_code": "NY 11206", "hotel_type_id": 204, "city_id": 20085207, "address": "9 Beaver Street", "hotel_class": 3, "name": "Bklyn House Hotel New York Brooklyn", "district_id": 7462, "url": "https:\/\/www.booking.com\/hotel\/us\/bklyn-house-new-york-brooklyn.html" }, "geometry": { "type": "Point", "coordinates": [ -73.93926, 40.70074 ] } },
{ "type": "Feature", "properties": { "hotel_id": 367632, "longitude": -73.98296, "latitude": 40.7599, "num_rooms": 110, "city": "New York", "zip_code": "NY 10019", "hotel_type_id": 219, "city_id": 20088325, "address": "142 West 49th Street", "hotel_class": 3, "name": "Radio City Apartments", "district_id": 929, "url": "https:\/\/www.booking.com\/hotel\/us\/radio-city-apartments.html" }, "geometry": { "type": "Point", "coordinates": [ -73.98296, 40.7599 ] } },
{ "type": "Feature", "properties": { "hotel_id": 1315321, "longitude": -73.98627, "latitude": 40.75558, "num_rooms": 302, "city": "New York", "zip_code": "NY 10036", "hotel_type_id": 204, "city_id": 20088325, "address": "6 Times Square", "hotel_class": 5, "name": "The Knickerbocker", "district_id": 929, "url": "https:\/\/www.booking.com\/hotel\/us\/the-knickerbocker.html" }, "geometry": { "type": "Point", "coordinates": [ -73.98627, 40.75558 ] } },
{ "type": "Feature", "properties": { "hotel_id": 530057, "longitude": -73.9775, "latitude": 40.76463, "num_rooms": 208, "city": "New York", "zip_code": "NY 10019", "hotel_type_id": 204, "city_id": 20088325, "address": "101 West 57th Street at Sixth Avenue", "hotel_class": 5, "name": "The Quin Central Park by Hilton Club", "district_id": 929, "url": "https:\/\/www.booking.com\/hotel\/us\/the-quin.html" }, "geometry": { "type": "Point", "coordinates": [ -73.9775, 40.76463 ] } },
{ "type": "Feature", "properties": { "hotel_id": 56164, "longitude": -73.98708, "latitude": 40.74386, "num_rooms": 159, "city": "New York", "zip_code": "NY 10016", "hotel_type_id": 204, "city_id": 20088325, "address": "7 East 27th Street", "hotel_class": 4, "name": "The Evelyn", "district_id": 929, "url": "https:\/\/www.booking.com\/hotel\/us\/gershwin.html" }, "geometry": { "type": "Point", "coordinates": [ -73.98708, 40.74386 ] } },
{ "type": "Feature", "properties": { "hotel_id": 266822, "longitude": -74.01238, "latitude": 40.70394, "num_rooms": 399, "city": "New York", "zip_code": "NY 10004", "hotel_type_id": 204, "city_id": 20088325, "address": "8 Stone Street", "hotel_class": 4, "name": "DoubleTree by Hilton New York Downtown", "district_id": 929, "url": "https:\/\/www.booking.com\/hotel\/us\/doubletree-new-york-city-financial-district.html" }, "geometry": { "type": "Point", "coordinates": [ -74.01238, 40.70394 ] } },
{ "type": "Feature", "properties": { "hotel_id": 278666, "longitude": -73.98328, "latitude": 40.7585, "num_rooms": 115, "city": "New York", "zip_code": "NY 10036", "hotel_type_id": 204, "city_id": 20088325, "address": "132 West 47th Street", "hotel_class": 4, "name": "Sanctuary Hotel New York", "district_id": 929, "url": "https:\/\/www.booking.com\/hotel\/us\/sanctuary-new-york.html" }, "geometry": { "type": "Point", "coordinates": [ -73.98328, 40.7585 ] } },
{ "type": "Feature", "properties": { "hotel_id": 241699, "longitude": -73.98115, "latitude": 40.76499, "num_rooms": 296, "city": "New York", "zip_code": "NY 10019", "hotel_type_id": 204, "city_id": 20088325, "address": "200 West 56th Street", "hotel_class": 4, "name": "The Manhattan Club", "district_id": 929, "url": "https:\/\/www.booking.com\/hotel\/us\/the-manhattan-club.html" }, "geometry": { "type": "Point", "coordinates": [ -73.98115, 40.76499 ] } },
{ "type": "Feature", "properties": { "hotel_id": 543546, "longitude": -73.99262, "latitude": 40.75443, "num_rooms": 224, "city": "New York", "zip_code": "NY 10018", "hotel_type_id": 204, "city_id": 20088325, "address": "307 West 37th Street", "hotel_class": 4, "name": "Courtyard by Marriott Times Square West", "district_id": 929, "url": "https:\/\/www.booking.com\/hotel\/us\/new-york-manhattan-times-square-west.html" }, "geometry": { "type": "Point", "coordinates": [ -73.99262, 40.75443 ] } },
{ "type": "Feature", "properties": { "hotel_id": 56271, "longitude": -73.98218, "latitude": 40.75581, "num_rooms": 117, "city": "New York", "zip_code": "NY 10036", "hotel_type_id": 204, "city_id": 20088325, "address": "49 West 44th Street", "hotel_class": 4, "name": "Iroquois New York Times Square", "district_id": 929, "url": "https:\/\/www.booking.com\/hotel\/us\/the-iroquois-new-york.html" }, "geometry": { "type": "Point", "coordinates": [ -73.98218, 40.75581 ] } },
{ "type": "Feature", "properties": { "hotel_id": 184085, "longitude": -73.99133, "latitude": 40.74708, "num_rooms": 236, "city": "New York", "zip_code": "NY 10001", "hotel_type_id": 204, "city_id": 20088325, "address": "128 West 29th Street", "hotel_class": 4, "name": "DoubleTree by Hilton - Chelsea", "district_id": 929, "url": "https:\/\/www.booking.com\/hotel\/us\/doubletree-new-york-city-chelsea.html" }, "geometry": { "type": "Point", "coordinates": [ -73.99133, 40.74708 ] } },
{ "type": "Feature", "properties": { "hotel_id": 743079, "longitude": -73.83519, "latitude": 40.76141, "num_rooms": 96, "city": "Queens", "zip_code": "NY 11354", "hotel_type_id": 204, "city_id": 20089077, "address": "39-16 College Point Boulevard", "hotel_class": 3, "name": "The Parc Hotel", "district_id": 1538, "url": "https:\/\/www.booking.com\/hotel\/us\/the-parc.html" }, "geometry": { "type": "Point", "coordinates": [ -73.83519, 40.76141 ] } },
{ "type": "Feature", "properties": { "hotel_id": 182266, "longitude": -74.00717, "latitude": 40.70557, "num_rooms": 112, "city": "New York", "zip_code": "NY 10005", "hotel_type_id": 204, "city_id": 20088325, "address": "126 Water Street", "hotel_class": 3, "name": "Holiday Inn Express - Wall Street", "district_id": 929, "url": "https:\/\/www.booking.com\/hotel\/us\/holiday-inn-express-new-york-city-wall-street.html" }, "geometry": { "type": "Point", "coordinates": [ -74.00717, 40.70557 ] } },
{ "type": "Feature", "properties": { "hotel_id": 55837, "longitude": -73.98623, "latitude": 40.75012, "num_rooms": 195, "city": "New York", "zip_code": "NY 10001", "hotel_type_id": 204, "city_id": 20088325, "address": "45 West 35th Street", "hotel_class": 4, "name": "Kixby", "district_id": 929, "url": "https:\/\/www.booking.com\/hotel\/us\/metro.html" }, "geometry": { "type": "Point", "coordinates": [ -73.98623, 40.75012 ] } },
{ "type": "Feature", "properties": { "hotel_id": 5218600, "longitude": -73.9937, "latitude": 40.75597, "num_rooms": 520, "city": "New York", "zip_code": "10018", "hotel_type_id": 204, "city_id": 20088325, "address": "350 West 39th St", "hotel_class": 3, "name": "Hyatt Place New York City\/Times Square", "district_id": 929, "url": "https:\/\/www.booking.com\/hotel\/us\/hyatt-place-new-york-city-times-square.html" }, "geometry": { "type": "Point", "coordinates": [ -73.9937, 40.75597 ] } },
{ "type": "Feature", "properties": { "hotel_id": 357419, "longitude": -73.97492, "latitude": 40.75797, "num_rooms": 909, "city": "New York", "zip_code": "NY 10022", "hotel_type_id": 204, "city_id": 20088325, "address": "455 Madison Avenue", "hotel_class": 5, "name": "Lotte New York Palace", "district_id": 929, "url": "https:\/\/www.booking.com\/hotel\/us\/new-york-palace.html" }, "geometry": { "type": "Point", "coordinates": [ -73.97492, 40.75797 ] } },
{ "type": "Feature", "properties": { "hotel_id": 190591, "longitude": -73.98459, "latitude": 40.7511, "num_rooms": 92, "city": "New York", "zip_code": "NY 10018", "hotel_type_id": 204, "city_id": 20088325, "address": "21 West 37th Street", "hotel_class": 3, "name": "Fairfield Inn & Suites by Marriott New York Manhattan\/Fifth Avenue", "district_id": 929, "url": "https:\/\/www.booking.com\/hotel\/us\/fairfield-inn-and-suites-by-marriott-new-york-manhattan-fifth-avenue.html" }, "geometry": { "type": "Point", "coordinates": [ -73.98459, 40.7511 ] } },
{ "type": "Feature", "properties": { "hotel_id": 56939, "longitude": -74.00743, "latitude": 40.71599, "num_rooms": 43, "city": "New York", "zip_code": "NY 10013", "hotel_type_id": 204, "city_id": 20088325, "address": "130 Duane Street", "hotel_class": 4, "name": "Duane Street Hotel Tribeca", "district_id": 929, "url": "https:\/\/www.booking.com\/hotel\/us\/duane-street.html" }, "geometry": { "type": "Point", "coordinates": [ -74.00743, 40.71599 ] } },
{ "type": "Feature", "properties": { "hotel_id": 48003, "longitude": -74.00566, "latitude": 40.74003, "num_rooms": 186, "city": "New York", "zip_code": "NY 10014", "hotel_type_id": 204, "city_id": 20088325, "address": "18 9th Avenue", "hotel_class": 4, "name": "Gansevoort Meatpacking", "district_id": 929, "url": "https:\/\/www.booking.com\/hotel\/us\/gansevoort-manhattan.html" }, "geometry": { "type": "Point", "coordinates": [ -74.00566, 40.74003 ] } },
{ "type": "Feature", "properties": { "hotel_id": 1639775, "longitude": -74.00668, "latitude": 40.71115, "num_rooms": 287, "city": "New York", "zip_code": "NY 10038", "hotel_type_id": 204, "city_id": 20088325, "address": "123 Nassau Street", "hotel_class": 4, "name": "The Beekman, a Thompson Hotel", "district_id": 929, "url": "https:\/\/www.booking.com\/hotel\/us\/the-beekman-a-thompson-hotel.html" }, "geometry": { "type": "Point", "coordinates": [ -74.00668, 40.71115 ] } },
{ "type": "Feature", "properties": { "hotel_id": 4561710, "longitude": -73.98406, "latitude": 40.75181, "num_rooms": 176, "city": "New York", "zip_code": "NY 10016", "hotel_type_id": 204, "city_id": 20088325, "address": "25 West 38th Street", "hotel_class": 4, "name": "Hotel Hendricks", "district_id": 929, "url": "https:\/\/www.booking.com\/hotel\/us\/hendricks.html" }, "geometry": { "type": "Point", "coordinates": [ -73.98406, 40.75181 ] } },
{ "type": "Feature", "properties": { "hotel_id": 617917, "longitude": -74.00674, "latitude": 40.71029, "num_rooms": 128, "city": "New York", "zip_code": "NY 10038", "hotel_type_id": 204, "city_id": 20088325, "address": "49-53 Ann Street", "hotel_class": 4, "name": "Aloft Manhattan Downtown - Financial District", "district_id": 929, "url": "https:\/\/www.booking.com\/hotel\/us\/aloft-manhattan-downtown-financial-district.html" }, "geometry": { "type": "Point", "coordinates": [ -74.00674, 40.71029 ] } },
{ "type": "Feature", "properties": { "hotel_id": 537218, "longitude": -74.00497, "latitude": 40.74589, "num_rooms": 60, "city": "New York", "zip_code": "NY 10011", "hotel_type_id": 204, "city_id": 20088325, "address": "180 Tenth Avenue", "hotel_class": 4, "name": "The High Line Hotel", "district_id": 929, "url": "https:\/\/www.booking.com\/hotel\/us\/the-high-line.html" }, "geometry": { "type": "Point", "coordinates": [ -74.00497, 40.74589 ] } },
{ "type": "Feature", "properties": { "hotel_id": 268972, "longitude": -73.97806, "latitude": 40.75552, "num_rooms": 67, "city": "New York", "zip_code": "NY 10017", "hotel_type_id": 204, "city_id": 20088325, "address": "16 East 46th Street", "hotel_class": 4, "name": "The Gotham Hotel", "district_id": 929, "url": "https:\/\/www.booking.com\/hotel\/us\/the-gotham-on-46th-street.html" }, "geometry": { "type": "Point", "coordinates": [ -73.97806, 40.75552 ] } },
{ "type": "Feature", "properties": { "hotel_id": 1575448, "longitude": -73.98914, "latitude": 40.74617, "num_rooms": 122, "city": "New York", "zip_code": "NY 10001", "hotel_type_id": 204, "city_id": 20088325, "address": "32 West 29th Street", "hotel_class": 4, "name": "The Paul Hotel NYC-Chelsea, Ascend Hotel Collection", "district_id": 929, "url": "https:\/\/www.booking.com\/hotel\/us\/the-paul-an-ascend-collection-member-new-york.html" }, "geometry": { "type": "Point", "coordinates": [ -73.98914, 40.74617 ] } },
{ "type": "Feature", "properties": { "hotel_id": 3151109, "longitude": -74.01746, "latitude": 40.70565, "num_rooms": 297, "city": "New York", "zip_code": "NY 10004", "hotel_type_id": 204, "city_id": 20088325, "address": "2 West Street", "hotel_class": 5, "name": "The Wagner Hotel", "district_id": 929, "url": "https:\/\/www.booking.com\/hotel\/us\/the-wagner.html" }, "geometry": { "type": "Point", "coordinates": [ -74.01746, 40.70565 ] } },
{ "type": "Feature", "properties": { "hotel_id": 46601, "longitude": -73.9756, "latitude": 40.76287, "num_rooms": 77, "city": "New York", "zip_code": "NY 10019", "hotel_type_id": 204, "city_id": 20088325, "address": "15 West 56th Street", "hotel_class": 4, "name": "Chambers Hotel", "district_id": 929, "url": "https:\/\/www.booking.com\/hotel\/us\/chambers.html" }, "geometry": { "type": "Point", "coordinates": [ -73.9756, 40.76287 ] } },
{ "type": "Feature", "properties": { "hotel_id": 185999, "longitude": -73.99248, "latitude": 40.75652, "num_rooms": 244, "city": "New York", "zip_code": "NY 10018", "hotel_type_id": 204, "city_id": 20088325, "address": "330 West 40th Street", "hotel_class": 4, "name": "Fairfield Inn & Suites By Marriott New York Manhattan\/Times Square", "district_id": 929, "url": "https:\/\/www.booking.com\/hotel\/us\/fairfield-inn-new-york-manhattan-times-sqaure.html" }, "geometry": { "type": "Point", "coordinates": [ -73.99248, 40.75652 ] } },
{ "type": "Feature", "properties": { "hotel_id": 2064332, "longitude": -73.99374, "latitude": 40.75374, "num_rooms": 251, "city": "New York", "zip_code": "NY 10018", "hotel_type_id": 204, "city_id": 20088325, "address": "320 West 36th Street", "hotel_class": 4, "name": "Crowne Plaza HY36 Midtown Manhattan", "district_id": 929, "url": "https:\/\/www.booking.com\/hotel\/us\/crowne-plaza-midtown-manhattan.html" }, "geometry": { "type": "Point", "coordinates": [ -73.99374, 40.75374 ] } },
{ "type": "Feature", "properties": { "hotel_id": 182485, "longitude": -73.99266, "latitude": 40.75658, "num_rooms": 310, "city": "New York", "zip_code": "NY 10018", "hotel_type_id": 204, "city_id": 20088325, "address": "340 West 40th Street", "hotel_class": 4, "name": "Staybridge Suites - Times Square - New York City", "district_id": 929, "url": "https:\/\/www.booking.com\/hotel\/us\/staybrige-suites-new-york-city.html" }, "geometry": { "type": "Point", "coordinates": [ -73.99266, 40.75658 ] } },
{ "type": "Feature", "properties": { "hotel_id": 3838991, "longitude": -74.00775, "latitude": 40.71068, "num_rooms": 298, "city": "New York", "zip_code": "NY 10038", "hotel_type_id": 204, "city_id": 20088325, "address": "26 Ann Street", "hotel_class": 4, "name": "Moxy NYC Downtown", "district_id": 929, "url": "https:\/\/www.booking.com\/hotel\/us\/moxy-nyc-downtown.html" }, "geometry": { "type": "Point", "coordinates": [ -74.00775, 40.71068 ] } },
{ "type": "Feature", "properties": { "hotel_id": 740453, "longitude": -73.83296, "latitude": 40.75912, "num_rooms": 168, "city": "Queens", "zip_code": "NY 11354", "hotel_type_id": 204, "city_id": 20089077, "address": "133-42 39th Avenue", "hotel_class": 3, "name": "Hyatt Place Flushing\/LGA Airport", "district_id": 1538, "url": "https:\/\/www.booking.com\/hotel\/us\/hyatt-place-flushing-lga-airport.html" }, "geometry": { "type": "Point", "coordinates": [ -73.83296, 40.75912 ] } },
{ "type": "Feature", "properties": { "hotel_id": 43396, "longitude": -73.98667, "latitude": 40.75029, "num_rooms": 298, "city": "New York", "zip_code": "NY 10001", "hotel_type_id": 204, "city_id": 20088325, "address": "63 West 35th Street", "hotel_class": 3, "name": "Hilton Garden Inn West 35th Street", "district_id": 929, "url": "https:\/\/www.booking.com\/hotel\/us\/hilton-garden-inn-new-york-west-35th-street.html" }, "geometry": { "type": "Point", "coordinates": [ -73.98667, 40.75029 ] } },
{ "type": "Feature", "properties": { "hotel_id": 4905928, "longitude": -73.95233, "latitude": 40.71383, "num_rooms": 187, "city": "Brooklyn", "zip_code": "NY 11211", "hotel_type_id": 204, "city_id": 20085207, "address": "500 Metropolitan Avenue", "hotel_class": 4, "name": "Hotel Indigo - Williamsburg - Brooklyn", "district_id": 1488, "url": "https:\/\/www.booking.com\/hotel\/us\/indigo-williamsburg-brooklyn.html" }, "geometry": { "type": "Point", "coordinates": [ -73.95233, 40.71383 ] } },
{ "type": "Feature", "properties": { "hotel_id": 2130903, "longitude": -73.98511, "latitude": 40.75111, "num_rooms": 310, "city": "New York", "zip_code": "NY 10018", "hotel_type_id": 204, "city_id": 20088325, "address": "60 West 37th Street   ", "hotel_class": 4, "name": "Embassy Suites By Hilton New York Manhattan Times Square", "district_id": 929, "url": "https:\/\/www.booking.com\/hotel\/us\/embassy-suites-by-hilton-new-york-midtown-manhattan.html" }, "geometry": { "type": "Point", "coordinates": [ -73.98511, 40.75111 ] } },
{ "type": "Feature", "properties": { "hotel_id": 26961, "longitude": -74.17788, "latitude": 40.61142, "num_rooms": 198, "city": "Staten Island", "zip_code": "NY 10314", "hotel_type_id": 204, "city_id": 900040555, "address": "1100 South Avenue", "hotel_class": 3, "name": "Hilton Garden Inn New York\/Staten Island", "district_id": 0, "url": "https:\/\/www.booking.com\/hotel\/us\/hilton-garden-inn-new-york-staten-island.html" }, "geometry": { "type": "Point", "coordinates": [ -74.17788, 40.61142 ] } },
{ "type": "Feature", "properties": { "hotel_id": 24900, "longitude": -73.96897, "latitude": 40.76446, "num_rooms": 379, "city": "New York", "zip_code": "NY 10065", "hotel_type_id": 204, "city_id": 20088325, "address": "540 Park Avenue", "hotel_class": 4, "name": "Loews Regency New York Hotel", "district_id": 929, "url": "https:\/\/www.booking.com\/hotel\/us\/loews-regency.html" }, "geometry": { "type": "Point", "coordinates": [ -73.96897, 40.76446 ] } },
{ "type": "Feature", "properties": { "hotel_id": 48440, "longitude": -73.98798, "latitude": 40.76053, "num_rooms": 51, "city": "New York", "zip_code": "NY 10036", "hotel_type_id": 204, "city_id": 20088325, "address": "302 West 47th Street", "hotel_class": 2, "name": "Econo Lodge Times Square", "district_id": 929, "url": "https:\/\/www.booking.com\/hotel\/us\/econolodge-times-square.html" }, "geometry": { "type": "Point", "coordinates": [ -73.98798, 40.76053 ] } },
{ "type": "Feature", "properties": { "hotel_id": 832865, "longitude": -73.93379, "latitude": 40.75311, "num_rooms": 115, "city": "Queens", "zip_code": "NY 11101", "hotel_type_id": 204, "city_id": 20089077, "address": "39-06 30th Street", "hotel_class": 3, "name": "Home2 Suites Long Island City\/Manhattan View", "district_id": 1534, "url": "https:\/\/www.booking.com\/hotel\/us\/home2-suites-long-island-city-manhattan-view.html" }, "geometry": { "type": "Point", "coordinates": [ -73.93379, 40.75311 ] } },
{ "type": "Feature", "properties": { "hotel_id": 328408, "longitude": -73.95198, "latitude": 40.74966, "num_rooms": 128, "city": "Queens", "zip_code": "NY 11101", "hotel_type_id": 204, "city_id": 20089077, "address": "44-29 9th Street", "hotel_class": 3, "name": "Wyndham Garden Long Island City", "district_id": 1534, "url": "https:\/\/www.booking.com\/hotel\/us\/long-island-city-44-29-9th-street.html" }, "geometry": { "type": "Point", "coordinates": [ -73.95198, 40.74966 ] } },
{ "type": "Feature", "properties": { "hotel_id": 1975205, "longitude": -73.93107, "latitude": 40.69427, "num_rooms": 70, "city": "Brooklyn", "zip_code": "NY 11221", "hotel_type_id": 204, "city_id": 20085207, "address": "1080 Broadway", "hotel_class": 3, "name": "Hotel RL Brooklyn", "district_id": 7456, "url": "https:\/\/www.booking.com\/hotel\/us\/rl-by-red-lion-brooklyn-bed-stuy.html" }, "geometry": { "type": "Point", "coordinates": [ -73.93107, 40.69427 ] } },
{ "type": "Feature", "properties": { "hotel_id": 59688, "longitude": -73.98491, "latitude": 40.75126, "num_rooms": 177, "city": "New York", "zip_code": "NY 10018", "hotel_type_id": 204, "city_id": 20088325, "address": "33 West 37 Street", "hotel_class": 4, "name": "Marriott Vacation Club Pulse, New York City", "district_id": 929, "url": "https:\/\/www.booking.com\/hotel\/us\/the-strand.html" }, "geometry": { "type": "Point", "coordinates": [ -73.98491, 40.75126 ] } },
{ "type": "Feature", "properties": { "hotel_id": 1549663, "longitude": -73.99257, "latitude": 40.74598, "num_rooms": 313, "city": "New York", "zip_code": "10001", "hotel_type_id": 204, "city_id": 20088325, "address": "132 West 27th Street", "hotel_class": 4, "name": "INNSIDE by Melià New York Nomad", "district_id": 929, "url": "https:\/\/www.booking.com\/hotel\/us\/innside-by-melia-manhattan.html" }, "geometry": { "type": "Point", "coordinates": [ -73.99257, 40.74598 ] } },
{ "type": "Feature", "properties": { "hotel_id": 2219519, "longitude": -73.98937, "latitude": 40.75242, "num_rooms": 612, "city": "New York", "zip_code": "10018", "hotel_type_id": 204, "city_id": 20088325, "address": "485 7th Avenue", "hotel_class": 4, "name": "MOXY NYC Times Square", "district_id": 929, "url": "https:\/\/www.booking.com\/hotel\/us\/moxy-nyc-times-square.html" }, "geometry": { "type": "Point", "coordinates": [ -73.98937, 40.75242 ] } },
{ "type": "Feature", "properties": { "hotel_id": 2235216, "longitude": -73.95797, "latitude": 40.72198, "num_rooms": 70, "city": "Brooklyn", "zip_code": "NY 11249", "hotel_type_id": 204, "city_id": 20085207, "address": "80 Wythe Avenue", "hotel_class": 4, "name": "Wythe Hotel", "district_id": 1488, "url": "https:\/\/www.booking.com\/hotel\/us\/wythe.html" }, "geometry": { "type": "Point", "coordinates": [ -73.95797, 40.72198 ] } },
{ "type": "Feature", "properties": { "hotel_id": 265391, "longitude": -73.9858, "latitude": 40.75289, "num_rooms": 357, "city": "New York", "zip_code": "NY 10018", "hotel_type_id": 204, "city_id": 20088325, "address": "1033 Avenue of the Americas", "hotel_class": 4, "name": "Residence Inn by Marriott New York Manhattan\/Times Square", "district_id": 929, "url": "https:\/\/www.booking.com\/hotel\/us\/residence-inn-new-york-manhattan-times-square.html" }, "geometry": { "type": "Point", "coordinates": [ -73.9858, 40.75289 ] } },
{ "type": "Feature", "properties": { "hotel_id": 863263, "longitude": -74.00895, "latitude": 40.72639, "num_rooms": 122, "city": "New York", "zip_code": "NY 10013", "hotel_type_id": 204, "city_id": 20088325, "address": "525 Greenwich Street", "hotel_class": 4, "name": "Hotel Hugo", "district_id": 929, "url": "https:\/\/www.booking.com\/hotel\/us\/hugo.html" }, "geometry": { "type": "Point", "coordinates": [ -74.00895, 40.72639 ] } },
{ "type": "Feature", "properties": { "hotel_id": 270767, "longitude": -73.98937, "latitude": 40.7587, "num_rooms": 607, "city": "New York", "zip_code": "NY 10036", "hotel_type_id": 204, "city_id": 20088325, "address": "300 West 44th Street", "hotel_class": 4, "name": "InterContinental New York Times Square", "district_id": 929, "url": "https:\/\/www.booking.com\/hotel\/us\/intercontinental-new-york-times-square.html" }, "geometry": { "type": "Point", "coordinates": [ -73.98937, 40.7587 ] } },
{ "type": "Feature", "properties": { "hotel_id": 3725547, "longitude": -73.99155, "latitude": 40.75574, "num_rooms": 78, "city": "New York", "zip_code": "NY 10018", "hotel_type_id": 204, "city_id": 20088325, "address": "305 West 39th Street", "hotel_class": 4, "name": "Lord & Moris - Times Square Hotel", "district_id": 929, "url": "https:\/\/www.booking.com\/hotel\/us\/lord-amp-moris.html" }, "geometry": { "type": "Point", "coordinates": [ -73.99155, 40.75574 ] } },
{ "type": "Feature", "properties": { "hotel_id": 191783, "longitude": -73.98807, "latitude": 40.71983, "num_rooms": 108, "city": "New York", "zip_code": "NY 10002", "hotel_type_id": 204, "city_id": 20088325, "address": "107 Rivington Street", "hotel_class": 4, "name": "Hotel on Rivington", "district_id": 929, "url": "https:\/\/www.booking.com\/hotel\/us\/on-rivington.html" }, "geometry": { "type": "Point", "coordinates": [ -73.98807, 40.71983 ] } },
{ "type": "Feature", "properties": { "hotel_id": 4512743, "longitude": -73.93438, "latitude": 40.75188, "num_rooms": 75, "city": "Queens", "zip_code": "NY 11101", "hotel_type_id": 204, "city_id": 20089077, "address": "29 12 40th Ave", "hotel_class": 3, "name": "Microtel Inn by Wyndham Long Island City", "district_id": 1534, "url": "https:\/\/www.booking.com\/hotel\/us\/microtel-inn-by-wyndham-long-island-city.html" }, "geometry": { "type": "Point", "coordinates": [ -73.93438, 40.75188 ] } },
{ "type": "Feature", "properties": { "hotel_id": 56276, "longitude": -73.99335, "latitude": 40.75263, "num_rooms": 1050, "city": "New York", "zip_code": "NY 10001 ", "hotel_type_id": 204, "city_id": 20088325, "address": "481 Eighth Avenue", "hotel_class": 4, "name": "The New Yorker, A Wyndham Hotel", "district_id": 929, "url": "https:\/\/www.booking.com\/hotel\/us\/new-yorker-ramada-plaza.html" }, "geometry": { "type": "Point", "coordinates": [ -73.99335, 40.75263 ] } },
{ "type": "Feature", "properties": { "hotel_id": 239080, "longitude": -73.99529, "latitude": 40.72058, "num_rooms": 57, "city": "New York", "zip_code": "NY 10012", "hotel_type_id": 204, "city_id": 20088325, "address": "30 Kenmare Street", "hotel_class": 4, "name": "Nolitan Hotel SoHo - New York", "district_id": 929, "url": "https:\/\/www.booking.com\/hotel\/us\/nolitan.html" }, "geometry": { "type": "Point", "coordinates": [ -73.99529, 40.72058 ] } },
{ "type": "Feature", "properties": { "hotel_id": 56106, "longitude": -73.97566, "latitude": 40.7644, "num_rooms": 134, "city": "New York", "zip_code": "NY 10019", "hotel_type_id": 219, "city_id": 20088325, "address": "42 West 58th Street", "hotel_class": 4, "name": "AKA Central Park", "district_id": 929, "url": "https:\/\/www.booking.com\/hotel\/us\/korman-kommunities-central-park.html" }, "geometry": { "type": "Point", "coordinates": [ -73.97566, 40.7644 ] } },
{ "type": "Feature", "properties": { "hotel_id": 56876, "longitude": -73.97186, "latitude": 40.74955, "num_rooms": 300, "city": "New York", "zip_code": "NY 10017", "hotel_type_id": 204, "city_id": 20088325, "address": "304 East 42nd Street", "hotel_class": 4, "name": "Westgate New York Grand Central", "district_id": 929, "url": "https:\/\/www.booking.com\/hotel\/us\/westgate-new-york-city.html" }, "geometry": { "type": "Point", "coordinates": [ -73.97186, 40.74955 ] } },
{ "type": "Feature", "properties": { "hotel_id": 180614, "longitude": -74.00545, "latitude": 40.72089, "num_rooms": 151, "city": "New York", "zip_code": "NY 10013", "hotel_type_id": 204, "city_id": 20088325, "address": "39 6th Avenue", "hotel_class": 4, "name": "Hilton Garden Inn New York\/Tribeca", "district_id": 929, "url": "https:\/\/www.booking.com\/hotel\/us\/hilton-garden-inn-new-york-tribeca.html" }, "geometry": { "type": "Point", "coordinates": [ -74.00545, 40.72089 ] } },
{ "type": "Feature", "properties": { "hotel_id": 2332903, "longitude": -73.94127, "latitude": 40.74817, "num_rooms": 108, "city": "Queens", "zip_code": "11101", "hotel_type_id": 204, "city_id": 20089077, "address": "27-03 43rd Ave", "hotel_class": 3, "name": "Hyatt Place Long Island City", "district_id": 1534, "url": "https:\/\/www.booking.com\/hotel\/us\/hyatt-place-long-island-new-york-city.html" }, "geometry": { "type": "Point", "coordinates": [ -73.94127, 40.74817 ] } },
{ "type": "Feature", "properties": { "hotel_id": 79612, "longitude": -73.78006, "latitude": 40.66644, "num_rooms": 110, "city": "Queens", "zip_code": "NY 11434", "hotel_type_id": 204, "city_id": 20089077, "address": "156-08 Rockaway Boulevard", "hotel_class": 3, "name": "Fairfield Inn by Marriott JFK Airport", "district_id": 3683, "url": "https:\/\/www.booking.com\/hotel\/us\/fairfield-inn-jfk-airport.html" }, "geometry": { "type": "Point", "coordinates": [ -73.78006, 40.66644 ] } },
{ "type": "Feature", "properties": { "hotel_id": 246522, "longitude": -73.98198, "latitude": 40.75636, "num_rooms": 165, "city": "New York", "zip_code": "NY 10036", "hotel_type_id": 204, "city_id": 20088325, "address": "70 West 45th Street", "hotel_class": 4, "name": "Cassa Hotel NY 45th Street", "district_id": 929, "url": "https:\/\/www.booking.com\/hotel\/us\/cassa-45th-street-new-york.html" }, "geometry": { "type": "Point", "coordinates": [ -73.98198, 40.75636 ] } },
{ "type": "Feature", "properties": { "hotel_id": 3110493, "longitude": -74.00464, "latitude": 40.70597, "num_rooms": 274, "city": "New York", "zip_code": "10038", "hotel_type_id": 204, "city_id": 20088325, "address": "151 MAIDEN LANE", "hotel_class": 4, "name": "AC Hotel by Marriott New York Downtown", "district_id": 929, "url": "https:\/\/www.booking.com\/hotel\/us\/ac-new-york-downtown-by-marriott.html" }, "geometry": { "type": "Point", "coordinates": [ -74.00464, 40.70597 ] } },
{ "type": "Feature", "properties": { "hotel_id": 360589, "longitude": -73.9942, "latitude": 40.75426, "num_rooms": 224, "city": "New York", "zip_code": "NY 10018", "hotel_type_id": 204, "city_id": 20088325, "address": "341 West 36th Street", "hotel_class": 4, "name": "DoubleTree by Hilton New York Times Square South", "district_id": 929, "url": "https:\/\/www.booking.com\/hotel\/us\/newyork-341-west36th.html" }, "geometry": { "type": "Point", "coordinates": [ -73.9942, 40.75426 ] } },
{ "type": "Feature", "properties": { "hotel_id": 363004, "longitude": -73.99637, "latitude": 40.75992, "num_rooms": 100, "city": "New York", "zip_code": "NY 10036", "hotel_type_id": 204, "city_id": 20088325, "address": "510 West 42nd Street", "hotel_class": 4, "name": "Cachet Boutique Hotel NYC", "district_id": 929, "url": "https:\/\/www.booking.com\/hotel\/us\/newyork-510-west-42.html" }, "geometry": { "type": "Point", "coordinates": [ -73.99637, 40.75992 ] } },
{ "type": "Feature", "properties": { "hotel_id": 599532, "longitude": -74.00985, "latitude": 40.7097, "num_rooms": 242, "city": "New York", "zip_code": "NY 10007", "hotel_type_id": 204, "city_id": 20088325, "address": "170 Broadway", "hotel_class": 4, "name": "Residence Inn by Marriott New York Downtown Manhattan\/World Trade Center Area", "district_id": 929, "url": "https:\/\/www.booking.com\/hotel\/us\/residence-inn-by-marriott-new-york-manhattan-world-trade-center-area.html" }, "geometry": { "type": "Point", "coordinates": [ -74.00985, 40.7097 ] } },
{ "type": "Feature", "properties": { "hotel_id": 1670477, "longitude": -73.93748, "latitude": 40.74979, "num_rooms": 160, "city": "Queens", "zip_code": "NY 11101", "hotel_type_id": 204, "city_id": 20089077, "address": "29-15 Queens Plaza North", "hotel_class": 3, "name": "Courtyard by Marriott Long Island City\/New York Manhattan View", "district_id": 1534, "url": "https:\/\/www.booking.com\/hotel\/us\/courtyard-by-marriott-long-island-city-new-york-manhattan-view.html" }, "geometry": { "type": "Point", "coordinates": [ -73.93748, 40.74979 ] } },
{ "type": "Feature", "properties": { "hotel_id": 1005792, "longitude": -73.94297, "latitude": 40.81472, "num_rooms": 75, "city": "New York", "zip_code": "NY 10030", "hotel_type_id": 203, "city_id": 20088325, "address": "180 West 135th Street", "hotel_class": 3, "name": "Harlem YMCA", "district_id": 929, "url": "https:\/\/www.booking.com\/hotel\/us\/harlem-ymca.html" }, "geometry": { "type": "Point", "coordinates": [ -73.94297, 40.81472 ] } },
{ "type": "Feature", "properties": { "hotel_id": 5347048, "longitude": -73.98142, "latitude": 40.75097, "num_rooms": 162, "city": "New York", "zip_code": "10016", "hotel_type_id": 204, "city_id": 20088325, "address": "16 East 39th St", "hotel_class": 4, "name": "Hyatt Centric 39th & 5th New York", "district_id": 929, "url": "https:\/\/www.booking.com\/hotel\/us\/hyatt-centric-39th-5th-new-york.html" }, "geometry": { "type": "Point", "coordinates": [ -73.98142, 40.75097 ] } },
{ "type": "Feature", "properties": { "hotel_id": 1225214, "longitude": -73.97682, "latitude": 40.76483, "num_rooms": 229, "city": "New York", "zip_code": "NY 10019", "hotel_type_id": 204, "city_id": 20088325, "address": "1414 Avenue of the Americas", "hotel_class": 5, "name": "1 Hotel Central Park", "district_id": 929, "url": "https:\/\/www.booking.com\/hotel\/us\/1-hotel-central-park.html" }, "geometry": { "type": "Point", "coordinates": [ -73.97682, 40.76483 ] } },
{ "type": "Feature", "properties": { "hotel_id": 1693084, "longitude": -73.97249, "latitude": 40.75165, "num_rooms": 230, "city": "New York", "zip_code": "NY 10017", "hotel_type_id": 204, "city_id": 20088325, "address": "221 East 44th Street", "hotel_class": 4, "name": "EVEN Midtown East - Grand Central", "district_id": 929, "url": "https:\/\/www.booking.com\/hotel\/us\/even-hotels-new-york-midtown-east.html" }, "geometry": { "type": "Point", "coordinates": [ -73.97249, 40.75165 ] } },
{ "type": "Feature", "properties": { "hotel_id": 1498024, "longitude": -74.00778, "latitude": 40.70639, "num_rooms": 132, "city": "New York", "zip_code": "NY 10005", "hotel_type_id": 219, "city_id": 20088325, "address": "70 Pine Street", "hotel_class": 4, "name": "Lyric at 70 Pine", "district_id": 929, "url": "https:\/\/www.booking.com\/hotel\/us\/q-amp-a-a-residential.html" }, "geometry": { "type": "Point", "coordinates": [ -74.00778, 40.70639 ] } },
{ "type": "Feature", "properties": { "hotel_id": 24727, "longitude": -74.00909, "latitude": 40.70897, "num_rooms": 112, "city": "New York", "zip_code": "NY 10038", "hotel_type_id": 204, "city_id": 20088325, "address": "51 Nassau Street", "hotel_class": 3, "name": "Holiday Inn Wall Street", "district_id": 929, "url": "https:\/\/www.booking.com\/hotel\/us\/reserve.html" }, "geometry": { "type": "Point", "coordinates": [ -74.00909, 40.70897 ] } },
{ "type": "Feature", "properties": { "hotel_id": 56029, "longitude": -73.97202, "latitude": 40.75649, "num_rooms": 209, "city": "New York", "zip_code": "NY 10022", "hotel_type_id": 204, "city_id": 20088325, "address": "125 East 50th Street", "hotel_class": 5, "name": "The Benjamin", "district_id": 929, "url": "https:\/\/www.booking.com\/hotel\/us\/the-benjamin.html" }, "geometry": { "type": "Point", "coordinates": [ -73.97202, 40.75649 ] } },
{ "type": "Feature", "properties": { "hotel_id": 606887, "longitude": -74.01418, "latitude": 40.70821, "num_rooms": 492, "city": "New York", "zip_code": "NY 10006", "hotel_type_id": 204, "city_id": 20088325, "address": "99 Washington Street", "hotel_class": 4, "name": "Holiday Inn Manhattan Financial District", "district_id": 929, "url": "https:\/\/www.booking.com\/hotel\/us\/holiday-inn-financial-district.html" }, "geometry": { "type": "Point", "coordinates": [ -74.01418, 40.70821 ] } },
{ "type": "Feature", "properties": { "hotel_id": 192074, "longitude": -73.97965, "latitude": 40.74984, "num_rooms": 205, "city": "New York", "zip_code": "NY 10016", "hotel_type_id": 204, "city_id": 20088325, "address": "70 Park Avenue", "hotel_class": 4, "name": "Iberostar 70 Park Avenue", "district_id": 929, "url": "https:\/\/www.booking.com\/hotel\/us\/iberostar-70-park-avenue.html" }, "geometry": { "type": "Point", "coordinates": [ -73.97965, 40.74984 ] } },
{ "type": "Feature", "properties": { "hotel_id": 55952, "longitude": -73.98626, "latitude": 40.76062, "num_rooms": 334, "city": "New York", "zip_code": "NY 10036", "hotel_type_id": 204, "city_id": 20088325, "address": "234 West 48th Street", "hotel_class": 4, "name": "The Gallivant Times Square", "district_id": 929, "url": "https:\/\/www.booking.com\/hotel\/us\/tryp-by-wyndham-times-square.html" }, "geometry": { "type": "Point", "coordinates": [ -73.98626, 40.76062 ] } },
{ "type": "Feature", "properties": { "hotel_id": 911236, "longitude": -74.0124, "latitude": 40.7032, "num_rooms": 81, "city": "New York", "zip_code": "NY 10004", "hotel_type_id": 204, "city_id": 20088325, "address": "32 Pearl Street", "hotel_class": 3, "name": "Hampton Inn Manhattan\/Downtown- Financial District", "district_id": 929, "url": "https:\/\/www.booking.com\/hotel\/us\/hampton-inn-financial-district.html" }, "geometry": { "type": "Point", "coordinates": [ -74.0124, 40.7032 ] } },
{ "type": "Feature", "properties": { "hotel_id": 2070130, "longitude": -73.93985, "latitude": 40.7485, "num_rooms": 176, "city": "Queens", "zip_code": "11101", "hotel_type_id": 204, "city_id": 20089077, "address": "27-45 Jackson Avenue", "hotel_class": 3, "name": "Aloft Long Island City-Manhattan View", "district_id": 1534, "url": "https:\/\/www.booking.com\/hotel\/us\/aloft-long-island-city-manhattan-view.html" }, "geometry": { "type": "Point", "coordinates": [ -73.93985, 40.7485 ] } },
{ "type": "Feature", "properties": { "hotel_id": 1248380, "longitude": -73.93688, "latitude": 40.75018, "num_rooms": 183, "city": "Queens", "zip_code": "NY 11101", "hotel_type_id": 204, "city_id": 20089077, "address": "29-21 41st Avenue   ", "hotel_class": 3, "name": "Hilton Garden Inn Long Island City", "district_id": 1534, "url": "https:\/\/www.booking.com\/hotel\/us\/hilton-garden-inn-long-island-city-manhattan-view.html" }, "geometry": { "type": "Point", "coordinates": [ -73.93688, 40.75018 ] } },
{ "type": "Feature", "properties": { "hotel_id": 3752762, "longitude": -73.97738, "latitude": 40.75465, "num_rooms": 1015, "city": "New York", "zip_code": "NY 10017", "hotel_type_id": 204, "city_id": 20088325, "address": "45 East 45th Street ", "hotel_class": 4, "name": "The Roosevelt Hotel", "district_id": 929, "url": "https:\/\/www.booking.com\/hotel\/us\/the-roosvelt.html" }, "geometry": { "type": "Point", "coordinates": [ -73.97738, 40.75465 ] } },
{ "type": "Feature", "properties": { "hotel_id": 55758, "longitude": -73.98315, "latitude": 40.74606, "num_rooms": 90, "city": "New York", "zip_code": "NY 10016", "hotel_type_id": 204, "city_id": 20088325, "address": "34 East 32nd Street", "hotel_class": 4, "name": "HGU New York", "district_id": 929, "url": "https:\/\/www.booking.com\/hotel\/us\/grandunionhotel.html" }, "geometry": { "type": "Point", "coordinates": [ -73.98315, 40.74606 ] } },
{ "type": "Feature", "properties": { "hotel_id": 76896, "longitude": -73.97136, "latitude": 40.76514, "num_rooms": 189, "city": "New York", "zip_code": "NY 10065", "hotel_type_id": 204, "city_id": 20088325, "address": "Two East 61st Street at 5th Avenue", "hotel_class": 5, "name": "The Pierre, A Taj Hotel, New York", "district_id": 929, "url": "https:\/\/www.booking.com\/hotel\/us\/the-pierre-a-taj.html" }, "geometry": { "type": "Point", "coordinates": [ -73.97136, 40.76514 ] } },
{ "type": "Feature", "properties": { "hotel_id": 547122, "longitude": -73.98981, "latitude": 40.73331, "num_rooms": 178, "city": "New York", "zip_code": "NY 10003", "hotel_type_id": 204, "city_id": 20088325, "address": "134 Fourth Avenue (corner of 13th Street and Fourth Avenue)", "hotel_class": 4, "name": "Hyatt Union Square New York", "district_id": 929, "url": "https:\/\/www.booking.com\/hotel\/us\/hyatt-union-square.html" }, "geometry": { "type": "Point", "coordinates": [ -73.98981, 40.73331 ] } },
{ "type": "Feature", "properties": { "hotel_id": 1719285, "longitude": -74.00786, "latitude": 40.70808, "num_rooms": 132, "city": "New York", "zip_code": "NY 10038", "hotel_type_id": 219, "city_id": 20088325, "address": "84 William Street", "hotel_class": 4, "name": "AKA Wall Street", "district_id": 929, "url": "https:\/\/www.booking.com\/hotel\/us\/aka-wall-street.html" }, "geometry": { "type": "Point", "coordinates": [ -74.00786, 40.70808 ] } },
{ "type": "Feature", "properties": { "hotel_id": 2152284, "longitude": -73.79122, "latitude": 40.73993, "num_rooms": 95, "city": "Queens", "zip_code": "11365", "hotel_type_id": 204, "city_id": 20089077, "address": "183-31 Horace Harding Expressway", "hotel_class": 3, "name": "Fairfield Inn & Suites by Marriott New York Queens\/Fresh Meadows", "district_id": 0, "url": "https:\/\/www.booking.com\/hotel\/us\/fairfield-inn-suites-by-marriott-new-york-queens-fresh-meadows.html" }, "geometry": { "type": "Point", "coordinates": [ -73.79122, 40.73993 ] } },
{ "type": "Feature", "properties": { "hotel_id": 1338472, "longitude": -73.97753, "latitude": 40.75955, "num_rooms": 27, "city": "New York", "zip_code": "NY 10019", "hotel_type_id": 204, "city_id": 20088325, "address": "3 West 51st Street", "hotel_class": 3, "name": "3 West Club", "district_id": 929, "url": "https:\/\/www.booking.com\/hotel\/us\/3-west-club.html" }, "geometry": { "type": "Point", "coordinates": [ -73.97753, 40.75955 ] } },
{ "type": "Feature", "properties": { "hotel_id": 606890, "longitude": -73.97845, "latitude": 40.76449, "num_rooms": 240, "city": "New York", "zip_code": "NY 10019", "hotel_type_id": 204, "city_id": 20088325, "address": "120 West 57th Street", "hotel_class": 5, "name": "Le Meridien New York, Central Park", "district_id": 929, "url": "https:\/\/www.booking.com\/hotel\/us\/new-york-central-park-le-meridien.html" }, "geometry": { "type": "Point", "coordinates": [ -73.97845, 40.76449 ] } },
{ "type": "Feature", "properties": { "hotel_id": 3158295, "longitude": -73.99001, "latitude": 40.75895, "num_rooms": 114, "city": "New York", "zip_code": "10036", "hotel_type_id": 204, "city_id": 20088325, "address": "324 W 44Th Street", "hotel_class": 3, "name": "TownePlace Suites by Marriott New York Manhattan\/Times Square", "district_id": 929, "url": "https:\/\/www.booking.com\/hotel\/us\/towneplace-suites-by-marriott-new-york-manhattan-times-square.html" }, "geometry": { "type": "Point", "coordinates": [ -73.99001, 40.75895 ] } },
{ "type": "Feature", "properties": { "hotel_id": 59521, "longitude": -74.01586, "latitude": 40.71506, "num_rooms": 463, "city": "New York", "zip_code": "NY 10282", "hotel_type_id": 204, "city_id": 20088325, "address": "102 North End Avenue", "hotel_class": 5, "name": "Conrad New York Downtown", "district_id": 929, "url": "https:\/\/www.booking.com\/hotel\/us\/e-suites-new-york-new-york-new-york.html" }, "geometry": { "type": "Point", "coordinates": [ -74.01586, 40.71506 ] } },
{ "type": "Feature", "properties": { "hotel_id": 905473, "longitude": -73.96933, "latitude": 40.75674, "num_rooms": 206, "city": "New York", "zip_code": "NY 10022", "hotel_type_id": 204, "city_id": 20088325, "address": "206 East 52nd Street", "hotel_class": 3, "name": "Hilton Garden Inn New York Manhattan Midtown East", "district_id": 929, "url": "https:\/\/www.booking.com\/hotel\/us\/hilton-garden-inn-new-york-manhattan-east.html" }, "geometry": { "type": "Point", "coordinates": [ -73.96933, 40.75674 ] } },
{ "type": "Feature", "properties": { "hotel_id": 2031539, "longitude": -73.9857, "latitude": 40.75455, "num_rooms": 130, "city": "New York", "zip_code": "NY 10036-7315", "hotel_type_id": 204, "city_id": 20088325, "address": "120 West 41st Street", "hotel_class": 4, "name": "LUMA Hotel - Times Square", "district_id": 929, "url": "https:\/\/www.booking.com\/hotel\/us\/luma-times-square.html" }, "geometry": { "type": "Point", "coordinates": [ -73.9857, 40.75455 ] } },
{ "type": "Feature", "properties": { "hotel_id": 793402, "longitude": -73.9828, "latitude": 40.76422, "num_rooms": 378, "city": "New York", "zip_code": "NY 10019", "hotel_type_id": 204, "city_id": 20088325, "address": "1717 Broadway", "hotel_class": 4, "name": "Courtyard by Marriott New York Manhattan\/Central Park", "district_id": 929, "url": "https:\/\/www.booking.com\/hotel\/us\/courtyard-by-marriott-new-york-manhattan-central-park.html" }, "geometry": { "type": "Point", "coordinates": [ -73.9828, 40.76422 ] } },
{ "type": "Feature", "properties": { "hotel_id": 4125132, "longitude": -73.99397, "latitude": 40.75401, "num_rooms": 256, "city": "New York", "zip_code": "10018", "hotel_type_id": 204, "city_id": 20088325, "address": "338 West 36th Street", "hotel_class": 3, "name": "SpringHill Suites by Marriott New York Manhattan\/Times Square South", "district_id": 929, "url": "https:\/\/www.booking.com\/hotel\/us\/springhill-suites-by-marriott-new-york-manhattan-times-square-36th-st.html" }, "geometry": { "type": "Point", "coordinates": [ -73.99397, 40.75401 ] } },
{ "type": "Feature", "properties": { "hotel_id": 248435, "longitude": -73.94867, "latitude": 40.67822, "num_rooms": 56, "city": "Brooklyn", "zip_code": "NY 11216", "hotel_type_id": 204, "city_id": 20085207, "address": "1324 Atlantic Avenue", "hotel_class": 3, "name": "Best Western PLUS Arena Hotel", "district_id": 7463, "url": "https:\/\/www.booking.com\/hotel\/us\/best-western-arena.html" }, "geometry": { "type": "Point", "coordinates": [ -73.94867, 40.67822 ] } },
{ "type": "Feature", "properties": { "hotel_id": 56700, "longitude": -73.98189, "latitude": 40.76266, "num_rooms": 1780, "city": "New York", "zip_code": "NY 10019 ", "hotel_type_id": 204, "city_id": 20088325, "address": "811 7th Avenue, 53rd Street", "hotel_class": 4, "name": "Sheraton New York Times Square Hotel", "district_id": 929, "url": "https:\/\/www.booking.com\/hotel\/us\/sheraton-new-york-towers.html" }, "geometry": { "type": "Point", "coordinates": [ -73.98189, 40.76266 ] } },
{ "type": "Feature", "properties": { "hotel_id": 1687908, "longitude": -73.99278, "latitude": 40.75683, "num_rooms": 155, "city": "New York", "zip_code": "10018", "hotel_type_id": 204, "city_id": 20088325, "address": "342 W 40th St", "hotel_class": 4, "name": "Distrikt Hotel New York City, Tapestry Collection by Hilton", "district_id": 929, "url": "https:\/\/www.booking.com\/hotel\/us\/distrikt-new-york11.html" }, "geometry": { "type": "Point", "coordinates": [ -73.99278, 40.75683 ] } },
{ "type": "Feature", "properties": { "hotel_id": 465664, "longitude": -73.93542, "latitude": 40.75158, "num_rooms": 152, "city": "Queens", "zip_code": "NY 11101", "hotel_type_id": 204, "city_id": 20089077, "address": "29-27 40th Road", "hotel_class": 3, "name": "Fairfield Inn & Suites by Marriott New York Queens\/Queensboro Bridge", "district_id": 1534, "url": "https:\/\/www.booking.com\/hotel\/us\/fairfield-inn-amp-suites-by-marriott-new-york-queens-queensboro-bridge.html" }, "geometry": { "type": "Point", "coordinates": [ -73.93542, 40.75158 ] } },
{ "type": "Feature", "properties": { "hotel_id": 1018299, "longitude": -73.98167, "latitude": 40.74535, "num_rooms": 128, "city": "New York", "zip_code": "NY 10016", "hotel_type_id": 204, "city_id": 20088325, "address": "114 East 32nd Street", "hotel_class": 5, "name": "The Marmara Park Avenue", "district_id": 929, "url": "https:\/\/www.booking.com\/hotel\/us\/the-marmara-park-avenue-new-york-city.html" }, "geometry": { "type": "Point", "coordinates": [ -73.98167, 40.74535 ] } },
{ "type": "Feature", "properties": { "hotel_id": 25294, "longitude": -73.98556, "latitude": 40.75838, "num_rooms": 1966, "city": "New York", "zip_code": "NY 10036", "hotel_type_id": 204, "city_id": 20088325, "address": "1535 Broadway", "hotel_class": 4, "name": "New York Marriott Marquis", "district_id": 929, "url": "https:\/\/www.booking.com\/hotel\/us\/new-york-marriott-marquis.html" }, "geometry": { "type": "Point", "coordinates": [ -73.98556, 40.75838 ] } },
{ "type": "Feature", "properties": { "hotel_id": 76799, "longitude": -73.97253, "latitude": 40.75598, "num_rooms": 697, "city": "New York", "zip_code": "NY 10022", "hotel_type_id": 204, "city_id": 20088325, "address": "541 Lexington Avenue", "hotel_class": 4, "name": "The Maxwell New York City", "district_id": 929, "url": "https:\/\/www.booking.com\/hotel\/us\/the-maxwell-new-york-city.html" }, "geometry": { "type": "Point", "coordinates": [ -73.97253, 40.75598 ] } },
{ "type": "Feature", "properties": { "hotel_id": 56508, "longitude": -73.98427, "latitude": 40.75679, "num_rooms": 114, "city": "New York", "zip_code": "NY 10036", "hotel_type_id": 219, "city_id": 20088325, "address": "123 West 44th Street", "hotel_class": 4, "name": "AKA Times Square", "district_id": 929, "url": "https:\/\/www.booking.com\/hotel\/us\/aka-times-square.html" }, "geometry": { "type": "Point", "coordinates": [ -73.98427, 40.75679 ] } },
{ "type": "Feature", "properties": { "hotel_id": 483674, "longitude": -73.99668, "latitude": 40.75254, "num_rooms": 239, "city": "New York", "zip_code": "NY 10001", "hotel_type_id": 204, "city_id": 20088325, "address": "325 West 33rd Street ", "hotel_class": 3, "name": "Fairfield Inn & Suites by Marriott New York Midtown Manhattan\/Penn Station", "district_id": 929, "url": "https:\/\/www.booking.com\/hotel\/us\/fairfield-inn-amp-suites-by-marriott-new-york-midtown-manhattan-penn-station.html" }, "geometry": { "type": "Point", "coordinates": [ -73.99668, 40.75254 ] } },
{ "type": "Feature", "properties": { "hotel_id": 187699, "longitude": -73.98646, "latitude": 40.75018, "num_rooms": 146, "city": "New York", "zip_code": "NY 10001", "hotel_type_id": 204, "city_id": 20088325, "address": "59 West 35th Street", "hotel_class": 3, "name": "Hampton by Hilton Manhattan 35th Street - Empire State Building", "district_id": 929, "url": "https:\/\/www.booking.com\/hotel\/us\/hampton-inn-manhattan-35th-st-empire-state-bldg.html" }, "geometry": { "type": "Point", "coordinates": [ -73.98646, 40.75018 ] } },
{ "type": "Feature", "properties": { "hotel_id": 617931, "longitude": -73.9823, "latitude": 40.74686, "num_rooms": 232, "city": "New York", "zip_code": "NY 10016", "hotel_type_id": 204, "city_id": 20088325, "address": "45 East 33rd Street", "hotel_class": 3, "name": "Hilton Garden Inn New York\/Midtown Park Avenue", "district_id": 929, "url": "https:\/\/www.booking.com\/hotel\/us\/hilton-garden-inn-new-york-midtown-park-avenue.html" }, "geometry": { "type": "Point", "coordinates": [ -73.9823, 40.74686 ] } },
{ "type": "Feature", "properties": { "hotel_id": 22639, "longitude": -73.99947, "latitude": 40.74471, "num_rooms": 81, "city": "New York", "zip_code": "NY 10011", "hotel_type_id": 204, "city_id": 20088325, "address": "300 West 22nd Street", "hotel_class": 4, "name": "The GEM Hotel - Chelsea", "district_id": 929, "url": "https:\/\/www.booking.com\/hotel\/us\/the-gem-chelsea.html" }, "geometry": { "type": "Point", "coordinates": [ -73.99947, 40.74471 ] } },
{ "type": "Feature", "properties": { "hotel_id": 75911, "longitude": -73.99089, "latitude": 40.72791, "num_rooms": 145, "city": "New York", "zip_code": "NY 10003", "hotel_type_id": 204, "city_id": 20088325, "address": "25 Cooper Square", "hotel_class": 4, "name": "The Standard - East Village", "district_id": 929, "url": "https:\/\/www.booking.com\/hotel\/us\/cooper-square.html" }, "geometry": { "type": "Point", "coordinates": [ -73.99089, 40.72791 ] } },
{ "type": "Feature", "properties": { "hotel_id": 1530887, "longitude": -73.97268, "latitude": 40.75447, "num_rooms": 96, "city": "New York", "zip_code": "10017", "hotel_type_id": 204, "city_id": 20088325, "address": "145 East 47th Street", "hotel_class": 4, "name": "The Bernic Hotel New York City,Tapestry Collection by Hilton", "district_id": 929, "url": "https:\/\/www.booking.com\/hotel\/us\/the-bernic.html" }, "geometry": { "type": "Point", "coordinates": [ -73.97268, 40.75447 ] } },
{ "type": "Feature", "properties": { "hotel_id": 2016822, "longitude": -73.9984, "latitude": 40.75499, "num_rooms": 148, "city": "New York", "zip_code": "NY 10001", "hotel_type_id": 204, "city_id": 20088325, "address": "446 10th Avenue", "hotel_class": 4, "name": "Four Points by Sheraton Manhattan Midtown West", "district_id": 929, "url": "https:\/\/www.booking.com\/hotel\/us\/four-points-by-sheraton-manhattan-midtown-west.html" }, "geometry": { "type": "Point", "coordinates": [ -73.9984, 40.75499 ] } },
{ "type": "Feature", "properties": { "hotel_id": 56880, "longitude": -73.98034, "latitude": 40.78217, "num_rooms": 291, "city": "New York", "zip_code": "NY 10024", "hotel_type_id": 204, "city_id": 20088325, "address": "2178 Broadway", "hotel_class": 4, "name": "Arthouse Hotel", "district_id": 929, "url": "https:\/\/www.booking.com\/hotel\/us\/on-the-ave.html" }, "geometry": { "type": "Point", "coordinates": [ -73.98034, 40.78217 ] } },
{ "type": "Feature", "properties": { "hotel_id": 56575, "longitude": -73.97188, "latitude": 40.7569, "num_rooms": 764, "city": "New York", "zip_code": "NY 10022", "hotel_type_id": 204, "city_id": 20088325, "address": "569 Lexington Avenue", "hotel_class": 4, "name": "DoubleTree by Hilton Metropolitan New York City", "district_id": 929, "url": "https:\/\/www.booking.com\/hotel\/us\/doubletree-metropolitan.html" }, "geometry": { "type": "Point", "coordinates": [ -73.97188, 40.7569 ] } },
{ "type": "Feature", "properties": { "hotel_id": 1078432, "longitude": -73.98486, "latitude": 40.75712, "num_rooms": 125, "city": "New York", "zip_code": "NY 10036", "hotel_type_id": 204, "city_id": 20088325, "address": "133 West 44th Street", "hotel_class": 4, "name": "Millennium Premier New York Times Square", "district_id": 929, "url": "https:\/\/www.booking.com\/hotel\/us\/the-premier-new-york-new-york-city.html" }, "geometry": { "type": "Point", "coordinates": [ -73.98486, 40.75712 ] } },
{ "type": "Feature", "properties": { "hotel_id": 706006, "longitude": -73.99525, "latitude": 40.71608, "num_rooms": 42, "city": "New York", "zip_code": "NY 10002", "hotel_type_id": 204, "city_id": 20088325, "address": "125 Canal Street", "hotel_class": 3, "name": "Leon Hotel", "district_id": 929, "url": "https:\/\/www.booking.com\/hotel\/us\/be.html" }, "geometry": { "type": "Point", "coordinates": [ -73.99525, 40.71608 ] } },
{ "type": "Feature", "properties": { "hotel_id": 2255044, "longitude": -73.99609, "latitude": 40.74398, "num_rooms": 70, "city": "New York", "zip_code": "NY 10011", "hotel_type_id": 204, "city_id": 20088325, "address": "204 W 23rd Street, New York, NY 10011", "hotel_class": 3, "name": "Chelsea Savoy", "district_id": 929, "url": "https:\/\/www.booking.com\/hotel\/us\/chelsea-savoy.html" }, "geometry": { "type": "Point", "coordinates": [ -73.99609, 40.74398 ] } },
{ "type": "Feature", "properties": { "hotel_id": 56921, "longitude": -73.9786, "latitude": 40.76417, "num_rooms": 729, "city": "New York", "zip_code": "NY 10019", "hotel_type_id": 204, "city_id": 20088325, "address": "119 West 56th Street", "hotel_class": 4, "name": "Parker New York, A Hyatt Affiliate Property", "district_id": 929, "url": "https:\/\/www.booking.com\/hotel\/us\/le-parker-meridien.html" }, "geometry": { "type": "Point", "coordinates": [ -73.9786, 40.76417 ] } },
{ "type": "Feature", "properties": { "hotel_id": 3390635, "longitude": -73.99106, "latitude": 40.74634, "num_rooms": 349, "city": "New York", "zip_code": "10001", "hotel_type_id": 204, "city_id": 20088325, "address": "105 West 28th Street", "hotel_class": 4, "name": "Moxy NYC Chelsea", "district_id": 929, "url": "https:\/\/www.booking.com\/hotel\/us\/moxy-nyc-chelsea.html" }, "geometry": { "type": "Point", "coordinates": [ -73.99106, 40.74634 ] } },
{ "type": "Feature", "properties": { "hotel_id": 500365, "longitude": -73.86952, "latitude": 40.77012, "num_rooms": 148, "city": "Queens", "zip_code": "NY 11369", "hotel_type_id": 204, "city_id": 20089077, "address": "100-15 Ditmars Boulevard", "hotel_class": 3, "name": "Aloft New York LaGuardia Airport", "district_id": 3685, "url": "https:\/\/www.booking.com\/hotel\/us\/laguardia-airport.html" }, "geometry": { "type": "Point", "coordinates": [ -73.86952, 40.77012 ] } },
{ "type": "Feature", "properties": { "hotel_id": 1357899, "longitude": -74.00793, "latitude": 40.7244, "num_rooms": 325, "city": "New York", "zip_code": "NY 10013", "hotel_type_id": 204, "city_id": 20088325, "address": "231 Hudson Street", "hotel_class": 4, "name": "Arlo SoHo", "district_id": 929, "url": "https:\/\/www.booking.com\/hotel\/us\/arlo-soho.html" }, "geometry": { "type": "Point", "coordinates": [ -74.00793, 40.7244 ] } },
{ "type": "Feature", "properties": { "hotel_id": 1446320, "longitude": -73.95127, "latitude": 40.67871, "num_rooms": 34, "city": "Brooklyn", "zip_code": "NY 11216", "hotel_type_id": 204, "city_id": 20085207, "address": "1199 Atlantic Ave Brooklyn", "hotel_class": 3, "name": "The Brooklyn", "district_id": 7456, "url": "https:\/\/www.booking.com\/hotel\/us\/brooklyn-a.html" }, "geometry": { "type": "Point", "coordinates": [ -73.95127, 40.67871 ] } },
{ "type": "Feature", "properties": { "hotel_id": 56740, "longitude": -73.98729, "latitude": 40.67336, "num_rooms": 48, "city": "Brooklyn", "zip_code": "NY 11215", "hotel_type_id": 204, "city_id": 20085207, "address": "370 4th Avenue", "hotel_class": 3, "name": "Hotel Le Bleu", "district_id": 15417, "url": "https:\/\/www.booking.com\/hotel\/us\/le-bleu.html" }, "geometry": { "type": "Point", "coordinates": [ -73.98729, 40.67336 ] } }
]
}
